[{"name":"mucus extended release","category":"Grass-roots","address":"04 Fulton Junction","city":"Hartford","state":"CT","lat":"41.7665","lng":"35.8887"},
{"name":"Sani-Soft","category":"circuit","address":"1613 Green Ridge Pass","city":"Roanoke","state":"VA","lat":"37.2742","lng":"40.7536"},
{"name":"CYCLESSA","category":"Synergized","address":"6 Sutherland Court","city":"Moreno Valley","state":"CA","lat":"33.9377","lng":"30.033"},
{"name":"Antibacterial Wet Wipes","category":"non-volatile","address":"2989 Clemons Parkway","city":"Bronx","state":"NY","lat":"40.8247","lng":"35.7977"},
{"name":"M WOMANS EROS BODY GLIDE","category":"Switchable","address":"14158 Schiller Road","city":"Cincinnati","state":"OH","lat":"39.1802","lng":"47.2061"},
{"name":"Zonnic Nicotine","category":"impactful","address":"7 Jackson Point","city":"Washington","state":"DC","lat":"38.8933","lng":"30.033"},
{"name":"Dexilant","category":"composite","address":"7865 Mallory Road","city":"Sioux City","state":"IA","lat":"42.4011","lng":"40.7651"},
{"name":"Levothyroxine Sodium","category":"contextually-based","address":"21 Bayside Pass","city":"Charleston","state":"WV","lat":"38.4142","lng":"29.2541"},
{"name":"NHS Muscle Cramps 1","category":"infrastructure","address":"23 Fulton Point","city":"Des Moines","state":"IA","lat":"41.6727","lng":"37.7667"},
{"name":"Clobex","category":"info-mediaries","address":"25802 Leroy Lane","city":"San Antonio","state":"TX","lat":"29.4375","lng":"39.1071"},
{"name":"GODDESS GARDEN ORGANICS Lavender Mint DAILY BROAD SPECTRUM SPF 15","category":"incremental","address":"98 Holmberg Court","city":"Riverside","state":"CA","lat":"33.9228","lng":"47.6036"},
{"name":"Tartar control plus","category":"tertiary","address":"046 Kennedy Point","city":"Bowie","state":"MD","lat":"38.8336","lng":"33.723"},
{"name":"Allegra D 12 Hour Allergy and Congestion","category":"ability","address":"46740 Sundown Plaza","city":"Oklahoma City","state":"OK","lat":"35.5514","lng":"41.6868"},
{"name":"Rx Act Pain Relief","category":"leverage","address":"19 Towne Crossing","city":"Erie","state":"PA","lat":"42.1109","lng":"31.6948"},
{"name":"Biaxin","category":"capability","address":"443 Cardinal Alley","city":"Round Rock","state":"TX","lat":"30.6568","lng":"36.1824"},
{"name":"Pecan Pollen","category":"success","address":"60090 Atwood Junction","city":"Trenton","state":"NJ","lat":"40.2805","lng":"37.9971"},
{"name":"DULOXETINE","category":"Compatible","address":"4539 Gateway Street","city":"Tacoma","state":"WA","lat":"47.3081","lng":"39.7388"},
{"name":"Terbinafine Hydrochloride","category":"Expanded","address":"7 Golden Leaf Court","city":"Olympia","state":"WA","lat":"47.1126","lng":"39.7495"},
{"name":"Vanilla Sugar Antibacterial Hand Sanitizer","category":"infrastructure","address":"99846 Fairview Pass","city":"Ann Arbor","state":"MI","lat":"42.2535","lng":"40.0018"},
{"name":"Furosemide","category":"contextually-based","address":"00 Hazelcrest Court","city":"Houston","state":"TX","lat":"29.834","lng":"39.2663"},
{"name":"Amoxicillin","category":"24 hour","address":"43 Donald Park","city":"Fort Myers","state":"FL","lat":"26.5529","lng":"35.3039"},
{"name":"Furosemide","category":"Organized","address":"5 Lukken Trail","city":"Alexandria","state":"VA","lat":"38.8158","lng":"31.6948"},
{"name":"Hydrochlorothiazide","category":"fresh-thinking","address":"9707 Tony Avenue","city":"Suffolk","state":"VA","lat":"36.8926","lng":"42.7684"},
{"name":"VEHICLE BOAT BAG MEDICAL","category":"leading edge","address":"857 Summer Ridge Court","city":"Baton Rouge","state":"LA","lat":"30.5159","lng":"33.5446"},
{"name":"Allopurinol","category":"human-resource","address":"97233 Fieldstone Center","city":"Troy","state":"MI","lat":"42.5991","lng":"30.329"},
{"name":"FLEXITOL FIRST AID","category":"Ergonomic","address":"388 Judy Street","city":"Warren","state":"OH","lat":"41.2405","lng":"41.7582"},
{"name":"BladderWell","category":"Phased","address":"27 3rd Parkway","city":"New Orleans","state":"LA","lat":"30.033","lng":"40.2785"},
{"name":"Soothe and Cool Non-Caking","category":"web-enabled","address":"9336 Emmet Avenue","city":"Washington","state":"DC","lat":"38.8874","lng":"36.5799"},
{"name":"CEFTRIAXONE AND DEXTROSE","category":"firmware","address":"2920 Orin Place","city":"Baltimore","state":"MD","lat":"39.2933","lng":"31.6948"},
{"name":"Nux vomica e sem. 3","category":"contingency","address":"826 Schlimgen Hill","city":"Charlotte","state":"NC","lat":"35.26","lng":"39.0429"},
{"name":"Chlordiazepoxide Hydrochloride","category":"human-resource","address":"58943 Beilfuss Junction","city":"Houston","state":"TX","lat":"29.7041","lng":"40.0418"},
{"name":"Methocarbamol","category":"static","address":"7417 Lighthouse Bay Hill","city":"Pomona","state":"CA","lat":"33.7866","lng":"43.4599"},
{"name":"Mepivacaine","category":"interactive","address":"3532 Crowley Pass","city":"Salt Lake City","state":"UT","lat":"40.6681","lng":"30.2081"},
{"name":"Pedia Relief","category":"system engine","address":"29 Waywood Court","city":"Phoenix","state":"AZ","lat":"33.7352","lng":"30.329"},
{"name":"WHP Be gone Dry Eyes","category":"Customer-focused","address":"79 Eagle Crest Court","city":"Honolulu","state":"HI","lat":"21.3062","lng":"43.286"},
{"name":"TERRACOTTA JOLI TEINT BEAUTIFYING FOUNDATION WITH SUNSCREEN SUN-KISSED, HEALTHY GLOW BROAD SPECTRUM SPF 20 NATURAL","category":"needs-based","address":"9 Shoshone Alley","city":"Hialeah","state":"FL","lat":"25.9098","lng":"41.8784"},
{"name":"Waterless Anti-Bacterial Hand Cleanser","category":"Self-enabling","address":"7896 Straubel Place","city":"Cleveland","state":"OH","lat":"41.6857","lng":"38.4134"},
{"name":"LUGOLS SOLUTION","category":"didactic","address":"61954 Cambridge Terrace","city":"Brooklyn","state":"NY","lat":"40.6451","lng":"35.26"},
{"name":"Alendronate Sodium","category":"Programmable","address":"85 Maple Wood Park","city":"Santa Fe","state":"NM","lat":"35.6219","lng":"47.6536"},
{"name":"Amitriptyline Hydrochloride","category":"focus group","address":"7481 Twin Pines Place","city":"Indianapolis","state":"IN","lat":"39.7509","lng":"47.4497"},
{"name":"risedronate sodium","category":"disintermediate","address":"288 Donald Terrace","city":"Charleston","state":"WV","lat":"38.3358","lng":"42.9559"},
{"name":"Irbesartan","category":"firmware","address":"24822 Browning Terrace","city":"Houston","state":"TX","lat":"29.834","lng":"42.1827"},
{"name":"Venlafaxine Hydrochloride","category":"Assimilated","address":"401 Sauthoff Lane","city":"Lexington","state":"KY","lat":"38.0612","lng":"37.2187"},
{"name":"GLYBURIDE AND METFORMIN HYDROCHLORIDE","category":"workforce","address":"8376 Ridgeway Lane","city":"Warren","state":"OH","lat":"41.2405","lng":"45.5289"},
{"name":"Phenazopyridine Hydrochloride","category":"real-time","address":"322 Bashford Drive","city":"Des Moines","state":"IA","lat":"41.6727","lng":"42.2719"},
{"name":"Doxepin Hydrochloride","category":"capacity","address":"842 Talmadge Road","city":"Gainesville","state":"FL","lat":"29.6785","lng":"39.1071"},
{"name":"PROVENCE MAKEUP BASE","category":"Persistent","address":"83839 High Crossing Court","city":"Pittsburgh","state":"PA","lat":"40.4598","lng":"30.0005"},
{"name":"care one nasal","category":"open architecture","address":"8655 Prentice Alley","city":"Alpharetta","state":"GA","lat":"34.0268","lng":"33.9335"},
{"name":"Macaroon Antibacterial Foaming Hand Wash","category":"secondary","address":"7 Prairie Rose Junction","city":"Beaumont","state":"TX","lat":"30.085","lng":"40.7259"},
{"name":"Treatment Set TS350565","category":"zero administration","address":"831 Manufacturers Road","city":"Beaufort","state":"SC","lat":"32.3401","lng":"40.4344"},
{"name":"PREPOPIK","category":"Automated","address":"90460 Menomonie Way","city":"Modesto","state":"CA","lat":"37.6409","lng":"37.2458"},
{"name":"PARURE DE LUMIERE LIGHT-DIFFUSING FOUNDATION WITH SUNSCREEN MOISTURE INFUSION BROAD SPECTRUM SPF 25 03 BEIGE NATUREL","category":"Sharable","address":"9823 Manufacturers Alley","city":"Tallahassee","state":"FL","lat":"30.5422","lng":"38.6531"},
{"name":"Gabapentin","category":"eco-centric","address":"733 Cherokee Street","city":"Dallas","state":"TX","lat":"32.69","lng":"32.6889"},
{"name":"OXYGEN","category":"analyzing","address":"889 Manitowish Street","city":"Reston","state":"VA","lat":"38.8318","lng":"38.3774"},
{"name":"infants fever reducer and pain reliever","category":"Managed","address":"7 Clemons Lane","city":"Memphis","state":"TN","lat":"35.2017","lng":"38.8318"},
{"name":"TRAZODONE HYDROCHLORIDE","category":"portal","address":"9 Laurel Drive","city":"Las Vegas","state":"NV","lat":"36.086","lng":"42.3809"},
{"name":"Phenytoin Sodium","category":"content-based","address":"4 Miller Point","city":"Atlanta","state":"GA","lat":"33.8444","lng":"39.7467"},
{"name":"Buspirone Hydrochloride","category":"secured line","address":"53882 Forest Run Center","city":"Richmond","state":"VA","lat":"37.5242","lng":"33.8106"},
{"name":"Antiseptic","category":"Focused","address":"591 Monica Drive","city":"Philadelphia","state":"PA","lat":"40.0343","lng":"38.189"},
{"name":"Losartan Potassium and Hydrochlorothiazide","category":"benchmark","address":"2 2nd Pass","city":"Minneapolis","state":"MN","lat":"44.9762","lng":"45.4918"},
{"name":"Magnesite Viscum","category":"matrices","address":"0038 Jenna Crossing","city":"Albany","state":"GA","lat":"31.55","lng":"33.2765"},
{"name":"Phenytoin Sodium","category":"client-driven","address":"6277 Little Fleur Road","city":"Huntington","state":"WV","lat":"38.4134","lng":"30.6143"},
{"name":"DG Ice Cold Analgesic","category":"data-warehouse","address":"68 Ludington Alley","city":"Rochester","state":"NY","lat":"43.286","lng":"30.2407"},
{"name":"Lisinopril","category":"Diverse","address":"505 Buhler Road","city":"Abilene","state":"TX","lat":"32.432","lng":"37.5535"},
{"name":"DOK EXTRA STRENGTH STOOL SOFTENER","category":"encoding","address":"3 Quincy Trail","city":"Arlington","state":"TX","lat":"32.7714","lng":"40.6281"},
{"name":"Sulindac","category":"24 hour","address":"4981 New Castle Parkway","city":"Sparks","state":"NV","lat":"39.6269","lng":"43.5486"},
{"name":"Dove Ultimate Sensitive Care Fragrance Free","category":"transitional","address":"97001 Mandrake Street","city":"Charlotte","state":"NC","lat":"35.2072","lng":"41.3089"},
{"name":"DEXTROSE","category":"4th generation","address":"355 Nancy Circle","city":"Philadelphia","state":"PA","lat":"40.0365","lng":"33.5693"},
{"name":"Soybean","category":"support","address":"8401 American Parkway","city":"Hyattsville","state":"MD","lat":"38.9513","lng":"38.6026"},
{"name":"Lotensin","category":"Monitored","address":"65158 Veith Place","city":"Oklahoma City","state":"OK","lat":"35.5514","lng":"45.5137"},
{"name":"Micardis HCT","category":"Devolved","address":"709 Delaware Circle","city":"Mountain View","state":"CA","lat":"37.1894","lng":"47.6339"},
{"name":"ASPERGILLUS FUMIGATUS","category":"Total","address":"5283 Dawn Center","city":"Washington","state":"DC","lat":"38.8933","lng":"35.6203"},
{"name":"acetaminophen","category":"support","address":"803 Upham Place","city":"Staten Island","state":"NY","lat":"40.5973","lng":"30.033"},
{"name":"amlodipine besylate","category":"database","address":"588 Hoepker Hill","city":"Fresno","state":"CA","lat":"36.7464","lng":"47.7161"},
{"name":"Dove Ultimate Beauty Care Original Clean","category":"Assimilated","address":"09806 Duke Street","city":"Pensacola","state":"FL","lat":"30.6143","lng":"36.0275"},
{"name":"Delestrogen","category":"website","address":"29704 Village Drive","city":"Nashville","state":"TN","lat":"36.1866","lng":"32.7673"},
{"name":"No7 Beautiful Skin Day Normal Oily Sunscreen Broad Spectrum SPF 15","category":"toolset","address":"75 Lakeland Street","city":"Sacramento","state":"CA","lat":"38.3774","lng":"31.5915"},
{"name":"HYDROXYZINE PAMOATE","category":"attitude-oriented","address":"6646 Talisman Avenue","city":"Springfield","state":"VA","lat":"38.8318","lng":"42.4098"},
{"name":"Famotidine","category":"productivity","address":"26 Grim Way","city":"Albany","state":"NY","lat":"42.6853","lng":"30.3704"},
{"name":"Zinc Oxide","category":"heuristic","address":"72424 Farwell Road","city":"Kingsport","state":"TN","lat":"36.5799","lng":"35.9901"},
{"name":"Ramipril","category":"function","address":"80774 Orin Road","city":"Oklahoma City","state":"OK","lat":"35.4312","lng":"36.0512"},
{"name":"Doxazosin","category":"Stand-alone","address":"5119 Schlimgen Way","city":"Irvine","state":"CA","lat":"33.7074","lng":"26.6104"},
{"name":"Bupropion Hydrochloride","category":"protocol","address":"61677 Schlimgen Trail","city":"Bonita Springs","state":"FL","lat":"26.3771","lng":"35.7977"},
{"name":"Wal-Dryl-D","category":"interactive","address":"5890 Dexter Plaza","city":"Atlanta","state":"GA","lat":"33.8932","lng":"34.7519"},
{"name":"SERTRALINE HYDROCHLORIDE","category":"Enhanced","address":"47379 Muir Street","city":"Washington","state":"DC","lat":"38.9164","lng":"35.26"},
{"name":"HYDROCORTISONE","category":"framework","address":"39 Washington Lane","city":"Chattanooga","state":"TN","lat":"35.0942","lng":"40.2805"},
{"name":"Mycophenolate Mofetil","category":"leverage","address":"05 Ohio Court","city":"Hampton","state":"VA","lat":"37.0206","lng":"42.6149"},
{"name":"Naproxen Sodium","category":"migration","address":"37 Saint Paul Way","city":"Jacksonville","state":"FL","lat":"30.3584","lng":"42.2399"},
{"name":"Colgate Sensitive Pro Relief Whitening","category":"implementation","address":"44981 Esker Road","city":"Aurora","state":"CO","lat":"39.6255","lng":"36.0986"},
{"name":"equaline flu and severe cold and cough","category":"explicit","address":"87 Dapin Alley","city":"Amarillo","state":"TX","lat":"35.4015","lng":"30.033"},
{"name":"Sensodyne Complete Protection","category":"clear-thinking","address":"285 Sunbrook Drive","city":"Racine","state":"WI","lat":"42.7161","lng":"39.1682"},
{"name":"CEDERROTH Emergency Eye Wash","category":"algorithm","address":"987 Loftsgordon Center","city":"Tampa","state":"FL","lat":"27.872","lng":"33.0169"},
{"name":"Arnica Montana Nartex","category":"software","address":"131 Lien Way","city":"Memphis","state":"TN","lat":"35.0664","lng":"45.0159"},
{"name":"Spironolactone","category":"Devolved","address":"0610 Claremont Center","city":"Fairfax","state":"VA","lat":"38.7351","lng":"36.1398"},
{"name":"Fluvoxamine Maleate","category":"service-desk","address":"37215 Larry Circle","city":"Syracuse","state":"NY","lat":"43.0214","lng":"29.834"},
{"name":"nicotine","category":"multimedia","address":"2 Chive Junction","city":"Washington","state":"DC","lat":"38.8933","lng":"40.7681"},
{"name":"Enpresse","category":"static","address":"112 Vera Court","city":"Baltimore","state":"MD","lat":"39.2847","lng":"33.8913"},
{"name":"LITHIUM CARBONATE","category":"Pre-emptive","address":"72 Nobel Drive","city":"Washington","state":"DC","lat":"38.8933","lng":"39.3093"},
{"name":"Diltiazem Hydrochloride","category":"tertiary","address":"1908 Cottonwood Terrace","city":"Albany","state":"NY","lat":"42.6149","lng":"35.3471"},
{"name":"Old Spice Wild Collection","category":"task-force","address":"003 Forster Center","city":"Washington","state":"DC","lat":"38.8933","lng":"39.1668"},
{"name":"Soothe XP","category":"customer loyalty","address":"55640 Acker Pass","city":"New York City","state":"NY","lat":"40.7105","lng":"47.368"},
{"name":"BRUSSEL SPROUTS","category":"Upgradable","address":"9043 Fairview Avenue","city":"New York City","state":"NY","lat":"40.7086","lng":"42.6568"},
{"name":"Prochieve","category":"productivity","address":"851 Crowley Lane","city":"Topeka","state":"KS","lat":"39.0583","lng":"35.7908"},
{"name":"Somatuline Depot","category":"Customer-focused","address":"2 Walton Plaza","city":"Lexington","state":"KY","lat":"38.0283","lng":"42.3254"},
{"name":"Barbie Striped Fluoride","category":"Open-source","address":"2683 Donald Avenue","city":"Miami","state":"FL","lat":"25.5593","lng":"33.7862"},
{"name":"Restfully Sleep","category":"knowledge user","address":"9 Golden Leaf Lane","city":"Louisville","state":"KY","lat":"38.2149","lng":"35.26"},
{"name":"Vita","category":"full-range","address":"7666 Summerview Street","city":"Wichita","state":"KS","lat":"37.6379","lng":"37.3329"},
{"name":"First Aid Shot Therapy Upset Stomach Relief","category":"mission-critical","address":"3716 Maple Drive","city":"Houston","state":"TX","lat":"29.834","lng":"44.9054"},
{"name":"Adidas","category":"Digitized","address":"59 Morrow Parkway","city":"Philadelphia","state":"PA","lat":"39.9379","lng":"38.189"},
{"name":"DR. RECKEWEG R26 Remisin","category":"hardware","address":"3 Mariners Cove Road","city":"Louisville","state":"KY","lat":"38.189","lng":"37.7211"},
{"name":"good neighbor pharmacy pain relief","category":"bifurcated","address":"980 Blue Bill Park Center","city":"Palmdale","state":"CA","lat":"34.6019","lng":"32.8919"},
{"name":"Potassium Chloride in Dextrose","category":"maximized","address":"59670 Commercial Place","city":"Tacoma","state":"WA","lat":"47.2061","lng":"39.5645"},
{"name":"moisturizing anti-bacterial hand soap","category":"data-warehouse","address":"10150 Judy Point","city":"Miami","state":"FL","lat":"25.8507","lng":"40.2204"},
{"name":"ADD","category":"reciprocal","address":"60767 Scott Center","city":"Escondido","state":"CA","lat":"33.0169","lng":"40.6451"},
{"name":"daytime severe cold and flu relief","category":"mission-critical","address":"78909 Eagan Hill","city":"Lexington","state":"KY","lat":"38.0283","lng":"38.8999"},
{"name":"Cultivated Wheat","category":"Enterprise-wide","address":"0193 Sommers Way","city":"Seattle","state":"WA","lat":"47.6564","lng":"42.7684"},
{"name":"ALCO-SAN INSTANT SKIN SANITIZER","category":"attitude","address":"8 Carpenter Road","city":"Springfield","state":"IL","lat":"39.7495","lng":"41.7918"},
{"name":"Sertraline Hydrochloride","category":"superstructure","address":"63418 Hoffman Hill","city":"Woburn","state":"MA","lat":"42.4464","lng":"34.8497"},
{"name":"H-Headaches Formula","category":"Distributed","address":"3 Colorado Place","city":"Houston","state":"TX","lat":"29.834","lng":"38.8933"},
{"name":"Metformin Hydrochloride","category":"model","address":"3 Sutherland Lane","city":"Flint","state":"MI","lat":"43.0113","lng":"37.7786"},
{"name":"PROBUFEN","category":"interactive","address":"7685 Westport Junction","city":"Miami","state":"FL","lat":"25.5593","lng":"33.2781"},
{"name":"Niaspan","category":"methodical","address":"92 Mesta Drive","city":"Torrance","state":"CA","lat":"33.7866","lng":"36.0275"},
{"name":"FACE IT RADIANCE FOUNDATION SPF20 NB23","category":"disintermediate","address":"13 Anzinger Parkway","city":"Reading","state":"PA","lat":"40.338","lng":"36.9959"},
{"name":"Instant Hand Sanitizer With Aloe and Vitamin E","category":"support","address":"269 Ohio Park","city":"Young America","state":"MN","lat":"44.8055","lng":"35.056"},
{"name":"Glimepiride","category":"Integrated","address":"5765 Esch Alley","city":"Richmond","state":"VA","lat":"37.5593","lng":"33.6021"},
{"name":"Risperidone","category":"website","address":"4235 Thompson Hill","city":"Atlanta","state":"GA","lat":"33.8444","lng":"34.1378"},
{"name":"Risperidone","category":"Team-oriented","address":"9 Spohn Park","city":"Maple Plain","state":"MN","lat":"45.0159","lng":"39.7495"},
{"name":"Isoniazid","category":"Advanced","address":"2 Hanover Center","city":"Bethesda","state":"MD","lat":"38.9585","lng":"33.5446"},
{"name":"Atracurium Besylate","category":"approach","address":"7890 Continental Crossing","city":"Orange","state":"CA","lat":"33.811","lng":"43.0123"},
{"name":"Fabior","category":"installation","address":"9093 Cambridge Hill","city":"El Paso","state":"TX","lat":"31.7705","lng":"35.26"},
{"name":"DAPTACEL","category":"artificial intelligence","address":"49763 Jenna Street","city":"New Haven","state":"CT","lat":"41.3087","lng":"35.2017"},
{"name":"END-ZIT","category":"Open-architected","address":"23523 Rigney Trail","city":"Portland","state":"ME","lat":"43.6783","lng":"39.7434"},
{"name":"ALTERNARIA TENUIS","category":"frame","address":"3 Farragut Way","city":"Irvine","state":"CA","lat":"33.6462","lng":"35.9924"},
{"name":"Natural Acne Solutions Clarifying Toner","category":"open architecture","address":"0906 Pawling Plaza","city":"Los Angeles","state":"CA","lat":"34.0515","lng":"29.7026"},
{"name":"ENBREL","category":"local area network","address":"42 Schmedeman Plaza","city":"Atlanta","state":"GA","lat":"33.8913","lng":"30.4036"},
{"name":"Nuvigil","category":"pricing structure","address":"79453 Eastlawn Alley","city":"Gilbert","state":"AZ","lat":"33.2781","lng":"39.1071"},
{"name":"Ropinirole Hydrochloride","category":"tangible","address":"17 Kipling Circle","city":"Charlottesville","state":"VA","lat":"38.0339","lng":"41.8119"},
{"name":"METHYLPHENIDATE HYDROCHLORIDE","category":"disintermediate","address":"1 Buell Pass","city":"Honolulu","state":"HI","lat":"21.351","lng":"33.7862"},
{"name":"Hizentra","category":"Proactive","address":"63483 Browning Crossing","city":"Spokane","state":"WA","lat":"47.6964","lng":"38.8933"},
{"name":"Granisetron Hydrochloride","category":"grid-enabled","address":"7 Mockingbird Crossing","city":"Waco","state":"TX","lat":"31.6403","lng":"38.9"},
{"name":"Mucus Relief Severe Cold","category":"Graphic Interface","address":"7024 Eastwood Drive","city":"Houston","state":"TX","lat":"29.7971","lng":"26.3771"},
{"name":"Dextroamphetamine Sulfate","category":"strategy","address":"475 Ronald Regan Trail","city":"Tuscaloosa","state":"AL","lat":"33.3072","lng":"25.5593"},
{"name":"Aspergillus flavus","category":"heuristic","address":"1 Judy Center","city":"Los Angeles","state":"CA","lat":"33.7866","lng":"32.7887"},
{"name":"Premarin","category":"challenge","address":"09 Acker Alley","city":"New York City","state":"NY","lat":"40.8662","lng":"30.6589"},
{"name":"INVOKANA","category":"background","address":"39622 Old Shore Hill","city":"Brooksville","state":"FL","lat":"28.5059","lng":"40.7911"},
{"name":"Carrot","category":"analyzing","address":"61183 Pennsylvania Alley","city":"San Bernardino","state":"CA","lat":"34.1446","lng":"27.8918"},
{"name":"COLGATE 2IN1","category":"local","address":"75 Holy Cross Hill","city":"Amarillo","state":"TX","lat":"35.2454","lng":"35.7977"},
{"name":"Cocoa Latte Tinted Moisturizer Broad Spectrum SPF 25 Sunscreen Medium To Dark","category":"Stand-alone","address":"91 Rieder Avenue","city":"Louisville","state":"KY","lat":"38.189","lng":"34.006"},
{"name":"InnoPran XL","category":"Monitored","address":"51 Dwight Way","city":"Pensacola","state":"FL","lat":"30.6143","lng":"43.0634"},
{"name":"ELOCTATE","category":"complexity","address":"00 Debra Way","city":"Marietta","state":"GA","lat":"33.9328","lng":"42.6149"},
{"name":"morphine sulfate","category":"moratorium","address":"5636 Elgar Court","city":"San Antonio","state":"TX","lat":"29.4413","lng":"44.9762"},
{"name":"Theraproxen-500","category":"Configurable","address":"07 Westridge Parkway","city":"Lafayette","state":"LA","lat":"30.2081","lng":"47.9335"},
{"name":"ESIKA","category":"Open-architected","address":"5598 Havey Place","city":"Indianapolis","state":"IN","lat":"39.7509","lng":"40.7808"},
{"name":"Dermaroller Anhydrous Sunscreen","category":"dedicated","address":"59 Karstens Center","city":"Houston","state":"TX","lat":"29.834","lng":"41.9705"},
{"name":"Box Elder","category":"Object-based","address":"7609 Rockefeller Alley","city":"Lehigh Acres","state":"FL","lat":"26.6492","lng":"35.5514"},
{"name":"GABAPENTIN","category":"object-oriented","address":"5 Roth Court","city":"San Francisco","state":"CA","lat":"37.7848","lng":"33.9845"},
{"name":"Superman Berry Scented Antiseptic Hand Cleansing","category":"Ergonomic","address":"337 Vernon Street","city":"Loretto","state":"MN","lat":"45.0159","lng":"39.7388"},
{"name":"Gemcitabine","category":"utilisation","address":"2600 Lakewood Gardens Parkway","city":"Honolulu","state":"HI","lat":"21.3068","lng":"33.61"},
{"name":"Kogenate FS","category":"stable","address":"6293 Gale Alley","city":"Miami","state":"FL","lat":"25.6364","lng":"40.0018"},
{"name":"Persimmon and Cantaloupe Day Sunscreen Broad Spectrum SPF 32 Oily to Normal","category":"5th generation","address":"7289 Tennyson Road","city":"Sterling","state":"VA","lat":"39.0853","lng":"32.8488"},
{"name":"X-PEL Anti-Lice","category":"monitoring","address":"37663 Fordem Center","city":"Washington","state":"DC","lat":"38.8933","lng":"32.7673"},
{"name":"Miracle Foot Repair Cream","category":"service-desk","address":"5238 Homewood Court","city":"San Diego","state":"CA","lat":"33.0169","lng":"47.6339"},
{"name":"Artistry Essentials Hydrating","category":"application","address":"02823 Prairieview Lane","city":"Miami","state":"FL","lat":"25.8507","lng":"39.739"},
{"name":"Childrens","category":"secondary","address":"6 Delaware Terrace","city":"Atlanta","state":"GA","lat":"33.8913","lng":"33.7529"},
{"name":"Torsemide","category":"Digitized","address":"42199 Towne Way","city":"Duluth","state":"MN","lat":"46.8147","lng":"39.0853"},
{"name":"Good Sense Nasal Decongestant","category":"eco-centric","address":"26637 Sutteridge Circle","city":"San Diego","state":"CA","lat":"32.7423","lng":"39.3093"},
{"name":"Jasmine Mint Antibacterial Foaming Hand Wash","category":"Profound","address":"1 2nd Place","city":"Sacramento","state":"CA","lat":"38.4826","lng":"47.4323"},
{"name":"levalbuterol hydrochloride","category":"Graphical User Interface","address":"9137 Elgar Way","city":"Albuquerque","state":"NM","lat":"35.0443","lng":"32.432"},
{"name":"Coast Maple","category":"global","address":"29 Southridge Alley","city":"Spring","state":"TX","lat":"30.1288","lng":"38.3774"},
{"name":"Bupropion Hydrochloride","category":"solution","address":"68 Quincy Crossing","city":"Huntington","state":"WV","lat":"38.4134","lng":"38.4826"},
{"name":"Dolce and Gabbana The Lift Foundation Almond 150","category":"Re-engineered","address":"348 Elgar Hill","city":"Denver","state":"CO","lat":"39.6888","lng":"44.9034"},
{"name":"Gas Relief","category":"encryption","address":"0078 Maryland Crossing","city":"Santa Ana","state":"CA","lat":"33.7465","lng":"31.6948"},
{"name":"Lidocaine","category":"logistical","address":"417 Hanover Terrace","city":"El Paso","state":"TX","lat":"31.9386","lng":"26.67"},
{"name":"Carbamazepine","category":"Balanced","address":"6 Gulseth Hill","city":"Corpus Christi","state":"TX","lat":"27.7262","lng":"47.6564"},
{"name":"Murine Tears for Dry Eyes","category":"Upgradable","address":"8771 Knutson Plaza","city":"Miami","state":"FL","lat":"25.5584","lng":"39.969"},
{"name":"Opium Tincture Deodorized","category":"Enhanced","address":"3978 Hanson Center","city":"Decatur","state":"GA","lat":"33.7749","lng":"38.189"},
{"name":"Petasites Plantago","category":"pricing structure","address":"35198 Menomonie Plaza","city":"Flushing","state":"NY","lat":"40.7536","lng":"27.9694"},
{"name":"Ramipril","category":"Polarised","address":"281 Fuller Circle","city":"Maple Plain","state":"MN","lat":"45.0159","lng":"38.9497"},
{"name":"Childrens Zyrtec Allergy","category":"benchmark","address":"929 Drewry Avenue","city":"Carol Stream","state":"IL","lat":"41.9166","lng":"37.6802"},
{"name":"GUNA-IL 2","category":"success","address":"3758 Maryland Place","city":"Las Vegas","state":"NV","lat":"36.2471","lng":"39.969"},
{"name":"Isradipine","category":"Face to face","address":"8602 International Center","city":"Fort Worth","state":"TX","lat":"32.6469","lng":"30.2907"},
{"name":"Neuro","category":"local","address":"585 Oak Alley","city":"Kansas City","state":"MO","lat":"39.035","lng":"40.0495"},
{"name":"cephalexin","category":"synergy","address":"85614 Monica Circle","city":"Cincinnati","state":"OH","lat":"39.1668","lng":"41.8804"},
{"name":"Neutrogena Healthy Skin Glow Sheers Illuminating Tinted Moisturizer - Light to Medium 30","category":"incremental","address":"249 Manitowish Street","city":"Los Angeles","state":"CA","lat":"33.7866","lng":"35.4369"},
{"name":"OXYGEN","category":"policy","address":"391 Bashford Alley","city":"Pomona","state":"CA","lat":"33.7866","lng":"40.2618"},
{"name":"Ethambutol Hydrochloride","category":"Reverse-engineered","address":"695 Cambridge Parkway","city":"Norfolk","state":"VA","lat":"36.9312","lng":"32.2334"},
{"name":"LBEL","category":"Expanded","address":"7 Lakewood Avenue","city":"Houston","state":"TX","lat":"29.834","lng":"47.6115"},
{"name":"TIANHE GUTONG TIEGAO (IN POLYISOBUTYLENE CARRIER)","category":"analyzing","address":"1 Springs Junction","city":"Shawnee Mission","state":"KS","lat":"38.8999","lng":"39.854"},
{"name":"Gris-PEG","category":"logistical","address":"157 Stuart Pass","city":"Miami","state":"FL","lat":"25.768","lng":"35.26"},
{"name":"Larynx Levisticum","category":"Seamless","address":"86 Evergreen Parkway","city":"Cincinnati","state":"OH","lat":"39.1668","lng":"36.0119"},
{"name":"MBM 10 Stomach","category":"Optimized","address":"0 Coleman Plaza","city":"Washington","state":"DC","lat":"38.9035","lng":"47.0662"},
{"name":"Perrigo Sodium Sulfacetamide and Sulfur","category":"Optional","address":"20724 Miller Crossing","city":"Fort Worth","state":"TX","lat":"32.7714","lng":"44.8055"},
{"name":"Spondylocladium","category":"matrix","address":"20 Bluestem Drive","city":"New York City","state":"NY","lat":"40.7808","lng":"39.3432"},
{"name":"LBEL HYDRATESS","category":"needs-based","address":"88108 Hoffman Plaza","city":"Los Angeles","state":"CA","lat":"34.0665","lng":"40.7442"},
{"name":"Berkley and Jensen Ranitidine","category":"analyzing","address":"9 Mitchell Park","city":"Hampton","state":"VA","lat":"37.0318","lng":"37.8471"},
{"name":"Gentamicin Sulfate","category":"encompassing","address":"59 Moulton Lane","city":"Bridgeport","state":"CT","lat":"41.3089","lng":"32.6076"},
{"name":"HYDROXYZINE HYDROCHLORIDE","category":"User-centric","address":"5 Reinke Circle","city":"Santa Barbara","state":"CA","lat":"34.4329","lng":"28.5469"},
{"name":"CitraNatal 90 DHA","category":"De-engineered","address":"3683 Westend Drive","city":"Simi Valley","state":"CA","lat":"34.0324","lng":"30.0877"},
{"name":"ACACIA","category":"hybrid","address":"42943 Service Hill","city":"Spokane","state":"WA","lat":"47.6964","lng":"45.0159"},
{"name":"DILTZAC","category":"frame","address":"84 Briar Crest Avenue","city":"Baltimore","state":"MD","lat":"39.2847","lng":"43.174"},
{"name":"Clotrimazole","category":"middleware","address":"09445 Westridge Street","city":"Dayton","state":"OH","lat":"39.7505","lng":"41.6727"},
{"name":"Naproxen","category":"Adaptive","address":"33 Thierer Street","city":"Pueblo","state":"CO","lat":"38.2352","lng":"35.4242"},
{"name":"dg health acid reducer","category":"mission-critical","address":"8236 Kings Crossing","city":"Rochester","state":"NY","lat":"43.286","lng":"41.0977"},
{"name":"eye itch relief","category":"Organic","address":"53 Dorton Avenue","city":"Duluth","state":"MN","lat":"46.8147","lng":"38.2968"},
{"name":"analgesic","category":"support","address":"8 Karstens Place","city":"Salt Lake City","state":"UT","lat":"40.7145","lng":"40.2418"},
{"name":"equaline ibuprofen","category":"full-range","address":"07211 Johnson Junction","city":"Muncie","state":"IN","lat":"40.2023","lng":"39.9597"},
{"name":"Paroxetine","category":"Upgradable","address":"27 Erie Road","city":"Saint Louis","state":"MO","lat":"38.6171","lng":"40.6747"},
{"name":"Diovan","category":"benchmark","address":"0 Rutledge Pass","city":"Indianapolis","state":"IN","lat":"39.7038","lng":"31.6948"},
{"name":"Ondansetron Hydrochloride","category":"Distributed","address":"440 Eliot Avenue","city":"Pensacola","state":"FL","lat":"30.4061","lng":"33.7377"},
{"name":"Youthful Wear Spotless Foundation","category":"grid-enabled","address":"6 Becker Lane","city":"Memphis","state":"TN","lat":"35.0981","lng":"35.7908"},
{"name":"FluoriSHIELD","category":"pricing structure","address":"3 Hooker Place","city":"Los Angeles","state":"CA","lat":"33.9631","lng":"43.6746"},
{"name":"Morphine Sulfate","category":"Virtual","address":"29 Scoville Center","city":"Brooklyn","state":"NY","lat":"40.6281","lng":"43.0059"},
{"name":"ATOPALM Deep Penetrating Pain Relieving","category":"responsive","address":"216 Sachtjen Way","city":"Gainesville","state":"GA","lat":"34.3562","lng":"25.8486"},
{"name":"Ramipril","category":"Proactive","address":"64 Armistice Parkway","city":"Littleton","state":"CO","lat":"39.7388","lng":"38.3774"},
{"name":"Cephalexin","category":"architecture","address":"8152 Brickson Park Drive","city":"Rochester","state":"NY","lat":"43.1216","lng":"36.7464"},
{"name":"paroxetine hydrochloride","category":"Robust","address":"0473 Amoth Hill","city":"Nashville","state":"TN","lat":"36.1866","lng":"40.7681"},
{"name":"SUCRALFATE","category":"toolset","address":"58239 Bartillon Junction","city":"Boston","state":"MA","lat":"42.3231","lng":"25.768"},
{"name":"Sound Body Original Eye","category":"support","address":"83 Bonner Point","city":"Saint Louis","state":"MO","lat":"38.6531","lng":"37.7848"},
{"name":"Derma Refiner Day","category":"middleware","address":"07 Di Loreto Crossing","city":"Greensboro","state":"NC","lat":"36.0807","lng":"41.7665"},
{"name":"Topcare Antacid Calcium","category":"throughput","address":"2551 Bunting Road","city":"New Haven","state":"CT","lat":"41.3657","lng":"35.7977"},
{"name":"Acetone Isopropyl Alcohol","category":"User-centric","address":"0087 Forest Trail","city":"Alpharetta","state":"GA","lat":"34.0268","lng":"29.2541"},
{"name":"Quetiapine fumarate","category":"fresh-thinking","address":"07412 Lawn Alley","city":"Richmond","state":"CA","lat":"37.7772","lng":"39.5437"},
{"name":"Glyburide and Metformin Hydrochloride","category":"Realigned","address":"495 Kinsman Park","city":"Raleigh","state":"NC","lat":"35.7667","lng":"33.9631"},
{"name":"END-ITCH","category":"function","address":"9547 Hoffman Hill","city":"Wilkes Barre","state":"PA","lat":"41.2044","lng":"29.7971"},
{"name":"mally Face Defender Foundation BB","category":"policy","address":"0577 Ronald Regan Junction","city":"South Bend","state":"IN","lat":"41.5968","lng":"64.8544"},
{"name":"Hydro Skin","category":"circuit","address":"0 Rigney Junction","city":"Salt Lake City","state":"UT","lat":"40.7259","lng":"26.3462"},
{"name":"Allspice","category":"web-enabled","address":"2594 Cottonwood Place","city":"Detroit","state":"MI","lat":"42.3809","lng":"32.8538"},
{"name":"TUMS","category":"dedicated","address":"78311 Bluestem Hill","city":"Dallas","state":"TX","lat":"32.7673","lng":"40.2944"},
{"name":"NuCort","category":"Triple-buffered","address":"16 Blackbird Lane","city":"Mc Keesport","state":"PA","lat":"40.4344","lng":"36.2204"},
{"name":"Citalopram","category":"matrices","address":"3 Lerdahl Way","city":"Portland","state":"OR","lat":"45.5483","lng":"41.6913"},
{"name":"Hydralazine Hydrochloride","category":"Polarised","address":"147 Florence Street","city":"Lexington","state":"KY","lat":"38.0612","lng":"44.9054"},
{"name":"Cetirizine Hydrochloride","category":"tertiary","address":"0 Kings Drive","city":"Brooklyn","state":"NY","lat":"40.6281","lng":"39.7388"},
{"name":"Hydrocortisone","category":"Business-focused","address":"62162 Warner Court","city":"Salt Lake City","state":"UT","lat":"40.7286","lng":"40.6681"},
{"name":"German Cockroach","category":"benchmark","address":"97 Pierstorff Avenue","city":"Sandy","state":"UT","lat":"40.5927","lng":"36.7978"},
{"name":"Doxepin Hydrochloride","category":"24/7","address":"6534 Prairieview Drive","city":"Pueblo","state":"CO","lat":"38.1286","lng":"38.2968"},
{"name":"sunmark ibuprofen","category":"discrete","address":"7 Reindahl Street","city":"Huntington","state":"WV","lat":"38.4134","lng":"33.2765"},
{"name":"acid controller","category":"fault-tolerant","address":"386 Victoria Trail","city":"Bridgeport","state":"CT","lat":"41.3089","lng":"26.0185"},
{"name":"NEUROSPORA INTERMEDIA","category":"heuristic","address":"88188 Maple Wood Terrace","city":"Cincinnati","state":"OH","lat":"39.1075","lng":"37.2568"},
{"name":"BABY COUGH SYRUP","category":"Universal","address":"2413 Hallows Place","city":"Seattle","state":"WA","lat":"47.4323","lng":"39.7155"},
{"name":"All day Allergy d","category":"client-server","address":"002 Bayside Drive","city":"Canton","state":"OH","lat":"40.854","lng":"26.9668"},
{"name":"care one all day pain relief","category":"Realigned","address":"16 Morrow Center","city":"Fort Worth","state":"TX","lat":"32.7233","lng":"26.1654"},
{"name":"Childrens Acetaminophen","category":"Mandatory","address":"4922 Maywood Way","city":"Washington","state":"DC","lat":"38.8933","lng":"36.7464"},
{"name":"Simply Right Lansoprazole","category":"Down-sized","address":"3608 Portage Way","city":"Woburn","state":"MA","lat":"42.4464","lng":"38.9613"},
{"name":"Magnesium Citrate","category":"stable","address":"23 Macpherson Plaza","city":"Des Moines","state":"IA","lat":"41.6727","lng":"37.5242"},
{"name":"PredniSONE","category":"Profit-focused","address":"54 Schlimgen Crossing","city":"Kansas City","state":"MO","lat":"38.9621","lng":"38.3774"},
{"name":"CHAPSTICK ULTRA MOISTURE","category":"dynamic","address":"53204 Buhler Hill","city":"San Diego","state":"CA","lat":"33.0169","lng":"37.5422"},
{"name":"Lidocaine Hydrochloride","category":"secondary","address":"50 Mayer Place","city":"Reno","state":"NV","lat":"39.5387","lng":"38.8318"},
{"name":"CVS Moisturizing Lubricating Eye","category":"client-server","address":"148 Eagan Plaza","city":"Carson City","state":"NV","lat":"39.1678","lng":"30.6589"},
{"name":"Diovan","category":"software","address":"3 Hooker Drive","city":"Des Moines","state":"IA","lat":"41.6727","lng":"44.8055"},
{"name":"RED ORANGE JELLY BB","category":"Synergistic","address":"42589 Melody Circle","city":"Austin","state":"TX","lat":"30.3264","lng":"39.1802"},
{"name":"Glipizide","category":"Stand-alone","address":"08292 Mosinee Pass","city":"Peoria","state":"IL","lat":"40.692","lng":"40.303"},
{"name":"Olanzapine","category":"Reverse-engineered","address":"858 Nelson Park","city":"Sacramento","state":"CA","lat":"38.5816","lng":"33.7866"},
{"name":"Oxycodone Hydrochloride","category":"leading edge","address":"7 Corben Plaza","city":"Dallas","state":"TX","lat":"32.7673","lng":"40.8063"},
{"name":"Benzoyl Peroxide","category":"Object-based","address":"5555 Roth Place","city":"Milwaukee","state":"WI","lat":"43.0174","lng":"40.2805"},
{"name":"Carbon Dioxide-Air Mixture","category":"software","address":"7 Granby Avenue","city":"Warren","state":"MI","lat":"42.5125","lng":"44.9054"},
{"name":"LE TECHNIQ","category":"Realigned","address":"01 Vermont Parkway","city":"Columbus","state":"OH","lat":"39.969","lng":"43.286"},
{"name":"PureFe OB Plus","category":"local area network","address":"607 East Drive","city":"Tampa","state":"FL","lat":"27.872","lng":"40.8139"},
{"name":"Cysto-Conray II","category":"analyzing","address":"14 Daystar Trail","city":"Knoxville","state":"TN","lat":"35.9924","lng":"40.0086"},
{"name":"Hydroxyzine Pamoate","category":"complexity","address":"97 Dapin Drive","city":"Kansas City","state":"MO","lat":"39.035","lng":"35.6665"},
{"name":"Pazol","category":"zero administration","address":"0901 Kipling Avenue","city":"San Francisco","state":"CA","lat":"37.7848","lng":"36.032"},
{"name":"FEMALE BALANCE","category":"architecture","address":"3 Pepper Wood Pass","city":"Memphis","state":"TN","lat":"35.2017","lng":"37.7786"},
{"name":"Dr Wises Gluten Relief","category":"Enhanced","address":"568 Clove Court","city":"Fort Lauderdale","state":"FL","lat":"26.1497","lng":"26.0989"},
{"name":"COCHLIOBOLUS SATIVUS","category":"Switchable","address":"02831 Del Mar Pass","city":"Round Rock","state":"TX","lat":"30.6568","lng":"31.6948"},
{"name":"Protonix","category":"service-desk","address":"939 Sauthoff Drive","city":"Panama City","state":"FL","lat":"30.1949","lng":"39.9106"},
{"name":"Panama Jack","category":"interface","address":"090 Clemons Avenue","city":"Grand Junction","state":"CO","lat":"39.1071","lng":"41.8119"},
{"name":"Benazepril Hydrochloride","category":"Reduced","address":"887 Maryland Lane","city":"South Bend","state":"IN","lat":"41.5968","lng":"33.7866"},
{"name":"morphine sulfate","category":"interactive","address":"958 Del Sol Place","city":"Billings","state":"MT","lat":"45.9783","lng":"34.2628"},
{"name":"Antibacterial Hand Sugar Cookie","category":"context-sensitive","address":"69 La Follette Circle","city":"Springfield","state":"OH","lat":"39.9106","lng":"44.8756"},
{"name":"LBEL","category":"bi-directional","address":"7817 Bonner Drive","city":"Salt Lake City","state":"UT","lat":"40.6681","lng":"38.8377"},
{"name":"Cold Multi-Symptom Severe","category":"Persevering","address":"4725 Calypso Way","city":"Richmond","state":"VA","lat":"37.5242","lng":"42.1109"},
{"name":"multi symptom cold relief","category":"logistical","address":"4059 Lyons Place","city":"Memphis","state":"TN","lat":"35.2017","lng":"37.3378"},
{"name":"CLINIMIX E","category":"moderator","address":"29877 Hermina Circle","city":"Florence","state":"SC","lat":"34.1231","lng":"30.3584"},
{"name":"IQ Dental Mepivacaine","category":"architecture","address":"255 Grover Hill","city":"Dallas","state":"TX","lat":"33.0005","lng":"38.189"},
{"name":"telmisartan and hydrochlorothiazide","category":"extranet","address":"08 Westridge Crossing","city":"South Bend","state":"IN","lat":"41.6255","lng":"38.6185"},
{"name":"Hydromorphone Hydrochloride","category":"collaboration","address":"90 Hoffman Plaza","city":"Jackson","state":"MS","lat":"32.3113","lng":"26.045"},
{"name":"Vivelle-Dot","category":"info-mediaries","address":"1495 Warrior Street","city":"Houston","state":"TX","lat":"29.834","lng":"39.116"},
{"name":"Pollens - Grasses, Bahia Grass Paspalum notatum","category":"discrete","address":"2039 Mendota Street","city":"Bakersfield","state":"CA","lat":"35.2944","lng":"37.7641"},
{"name":"Lisinopril and Hydrochlorothiazide","category":"Configurable","address":"8696 Lakewood Gardens Terrace","city":"Philadelphia","state":"PA","lat":"40.0018","lng":"36.0986"},
{"name":"Mi Acid","category":"Implemented","address":"80 Maryland Plaza","city":"Richmond","state":"CA","lat":"37.7772","lng":"35.0512"},
{"name":"Head and Shoulders","category":"pricing structure","address":"2 Pawling Circle","city":"Naples","state":"FL","lat":"26.045","lng":"29.8744"},
{"name":"Ery-Tab","category":"Down-sized","address":"5 Talmadge Drive","city":"El Paso","state":"TX","lat":"31.6948","lng":"41.8119"},
{"name":"Rite Aid Baby Sunscreen","category":"Monitored","address":"14 Ludington Park","city":"Springfield","state":"VA","lat":"38.8318","lng":"32.7635"},
{"name":"Spironolactone","category":"Fundamental","address":"271 Toban Circle","city":"Jackson","state":"MS","lat":"32.3113","lng":"33.7866"},
{"name":"Coast Live Oak Pollen","category":"definition","address":"21522 Burning Wood Avenue","city":"Washington","state":"DC","lat":"38.8933","lng":"37.7848"},
{"name":"COUMADIN","category":"focus group","address":"88860 Mendota Crossing","city":"Hartford","state":"CT","lat":"41.7665","lng":"29.6518"},
{"name":"Risperidone","category":"value-added","address":"5107 Old Shore Way","city":"Mesa","state":"AZ","lat":"33.3887","lng":"40.2805"},
{"name":"Metformin Hydrochloride","category":"asynchronous","address":"9908 Swallow Drive","city":"Maple Plain","state":"MN","lat":"45.0159","lng":"33.9583"},
{"name":"Pyridoxine Hydrochloride","category":"infrastructure","address":"409 Fordem Park","city":"North Little Rock","state":"AR","lat":"34.8337","lng":"31.6948"},
{"name":"Nicotine polacrilex","category":"hardware","address":"873 Shopko Parkway","city":"Winston Salem","state":"NC","lat":"36.0275","lng":"40.2805"},
{"name":"Mometasone Furoate","category":"workforce","address":"9 Warrior Circle","city":"Jackson","state":"MS","lat":"32.3218","lng":"35.2017"},
{"name":"Ice Quake","category":"Enterprise-wide","address":"13 Texas Street","city":"San Antonio","state":"TX","lat":"29.4189","lng":"36.7464"},
{"name":"Ciclopirox","category":"Fully-configurable","address":"99080 Monica Road","city":"Chicago","state":"IL","lat":"41.8756","lng":"25.5584"},
{"name":"Altace","category":"Re-engineered","address":"384 Marquette Court","city":"Midland","state":"MI","lat":"43.6375","lng":"40.0018"},
{"name":"Vaccinoplex","category":"frame","address":"839 Delaware Park","city":"Portland","state":"OR","lat":"45.5287","lng":"33.61"},
{"name":"Rashes - Hives","category":"time-frame","address":"8 Dennis Junction","city":"Provo","state":"UT","lat":"40.177","lng":"41.6727"},
{"name":"Hydralazine Hydrochloride","category":"help-desk","address":"78980 Mosinee Hill","city":"Winston Salem","state":"NC","lat":"36.0275","lng":"33.1968"},
{"name":"Lamotrigine","category":"dedicated","address":"28902 Eastlawn Junction","city":"Dallas","state":"TX","lat":"32.7673","lng":"38.8933"},
{"name":"SUNTINTS","category":"even-keeled","address":"1562 Haas Terrace","city":"New York City","state":"NY","lat":"40.8265","lng":"43.0696"},
{"name":"Kadian","category":"array","address":"5 Sachtjen Parkway","city":"Spokane","state":"WA","lat":"47.6964","lng":"35.5704"},
{"name":"Rendrevie Sun Screen SPF35 PA","category":"Automated","address":"887 Emmet Alley","city":"Des Moines","state":"IA","lat":"41.6727","lng":"29.7575"},
{"name":"Folic Acid","category":"budgetary management","address":"033 Waubesa Hill","city":"San Diego","state":"CA","lat":"33.0169","lng":"25.5584"},
{"name":"Clonazepam","category":"transitional","address":"60455 Linden Parkway","city":"North Hollywood","state":"CA","lat":"33.7866","lng":"42.1707"},
{"name":"NITROGEN","category":"complexity","address":"0 Pennsylvania Road","city":"New York City","state":"NY","lat":"40.7808","lng":"29.834"},
{"name":"Daytime Sinus Congestion and Pain","category":"systemic","address":"94 Fallview Center","city":"Austin","state":"TX","lat":"30.3264","lng":"30.2081"},
{"name":"CLARINS Ever Matte Broad Spectrum SPF 15 Tint 114","category":"secured line","address":"66 Delaware Circle","city":"Sioux City","state":"IA","lat":"42.4011","lng":"35.2017"},
{"name":"Focalin","category":"encoding","address":"8 Caliangt Place","city":"Sacramento","state":"CA","lat":"38.6026","lng":"26.1457"},
{"name":"Protex Oats","category":"coherent","address":"367 Kennedy Avenue","city":"Houston","state":"TX","lat":"29.7041","lng":"38.8952"},
{"name":"ipratropium bromide and albuterol sulfate","category":"web-enabled","address":"140 Scoville Point","city":"New York City","state":"NY","lat":"40.8662","lng":"36.7563"},
{"name":"ULTRA HYDRA","category":"budgetary management","address":"0 Vidon Junction","city":"Nashville","state":"TN","lat":"36.1114","lng":"30.0877"},
{"name":"Spironolactone and Hydrochlorothiazide","category":"context-sensitive","address":"9060 Knutson Way","city":"Houston","state":"TX","lat":"29.834","lng":"37.3729"},
{"name":"ApexiCon E","category":"Enhanced","address":"57 Glendale Way","city":"Muskegon","state":"MI","lat":"43.1791","lng":"29.9015"},
{"name":"Amiodarone Hydrochloride","category":"eco-centric","address":"1 Jackson Parkway","city":"Bowie","state":"MD","lat":"38.8336","lng":"30.2081"},
{"name":"XtraCare Foam Antibacterial Hand Wash","category":"Fundamental","address":"08 Northport Way","city":"Grand Rapids","state":"MI","lat":"43.0073","lng":"40.6681"},
{"name":"Loratadine","category":"scalable","address":"063 Oak Valley Avenue","city":"Petaluma","state":"CA","lat":"38.4631","lng":"29.6785"},
{"name":"Benicar HCT","category":"array","address":"08999 David Court","city":"Saint Paul","state":"MN","lat":"44.806","lng":"42.9521"},
{"name":"miconazole 1","category":"Persistent","address":"568 Golf Center","city":"Long Beach","state":"CA","lat":"33.7678","lng":"27.7391"},
{"name":"Clindamycin Hydrochloride","category":"Profit-focused","address":"422 Fairview Circle","city":"Mount Vernon","state":"NY","lat":"41.119","lng":"39.8188"},
{"name":"Treatment Set TS329894","category":"client-driven","address":"2642 Farmco Place","city":"Sacramento","state":"CA","lat":"38.3774","lng":"33.817"},
{"name":"RYZOLT","category":"Implemented","address":"347 John Wall Park","city":"Pittsburgh","state":"PA","lat":"40.4344","lng":"33.9443"},
{"name":"Docusate Sodium Stool Softener","category":"middleware","address":"513 Lotheville Center","city":"Grand Junction","state":"CO","lat":"39.1071","lng":"25.5584"},
{"name":"Sepia 30c","category":"Re-engineered","address":"1 Rowland Court","city":"Huntsville","state":"TX","lat":"30.7813","lng":"32.8067"},
{"name":"ELF Milk and Honey Cleansing Anti-bacterial Hand","category":"synergy","address":"729 Columbus Crossing","city":"Montgomery","state":"AL","lat":"32.2334","lng":"40.8111"},
{"name":"LEVOTHYROXINE SODIUM","category":"paradigm","address":"6079 Hanson Trail","city":"Green Bay","state":"WI","lat":"44.4601","lng":"35.056"},
{"name":"Honeysuckle Ginger Hand Sanitizer","category":"intermediate","address":"60 5th Street","city":"Santa Monica","state":"CA","lat":"34.01","lng":"25.5584"},
{"name":"Hyoscyamine Sulfate","category":"Ergonomic","address":"4 Monument Plaza","city":"Topeka","state":"KS","lat":"39.1271","lng":"38.8933"},
{"name":"Baza Clear","category":"Self-enabling","address":"0 Quincy Center","city":"Burbank","state":"CA","lat":"34.1869","lng":"29.5189"},
{"name":"Antibacterial singlefold Towels","category":"Grass-roots","address":"5494 Upham Avenue","city":"Charleston","state":"WV","lat":"38.4142","lng":"43.0631"},
{"name":"DILAUDID","category":"web-enabled","address":"2 Rusk Court","city":"Chicago","state":"IL","lat":"41.9399","lng":"27.8918"},
{"name":"Mesalamine","category":"Distributed","address":"883 Hermina Pass","city":"Boulder","state":"CO","lat":"40.0878","lng":"30.43"},
{"name":"Anti-Bacterial Hand","category":"high-level","address":"0795 Caliangt Junction","city":"Philadelphia","state":"PA","lat":"39.9473","lng":"27.9951"},
{"name":"Fluconazole","category":"optimizing","address":"0 Doe Crossing Pass","city":"Phoenix","state":"AZ","lat":"33.2765","lng":"38.2352"},
{"name":"SUMATRIPTAN","category":"high-level","address":"92 Carey Hill","city":"Jersey City","state":"NJ","lat":"40.702","lng":"36.0807"},
{"name":"DROXIA","category":"utilisation","address":"2547 Muir Street","city":"Waterbury","state":"CT","lat":"41.3657","lng":"36.8056"},
{"name":"Medique Alamag Plus","category":"neural-net","address":"89072 Arkansas Hill","city":"Fort Wayne","state":"IN","lat":"41.0938","lng":"40.6278"},
{"name":"Lisinopril and Hydrochlorthiazide","category":"leading edge","address":"4426 Straubel Street","city":"Spokane","state":"WA","lat":"47.6536","lng":"35.6203"},
{"name":"Gabapentin","category":"Total","address":"9864 Morrow Avenue","city":"Sarasota","state":"FL","lat":"27.2866","lng":"38.8518"},
{"name":"Clindamycin Hydrochloride","category":"paradigm","address":"59 Waxwing Road","city":"Omaha","state":"NE","lat":"41.2917","lng":"40.6914"},
{"name":"Infants Ibuprofen","category":"analyzer","address":"810 Hermina Circle","city":"Albuquerque","state":"NM","lat":"35.0443","lng":"37.2742"},
{"name":"Drowz Away","category":"Advanced","address":"57 Warrior Hill","city":"Provo","state":"UT","lat":"40.177","lng":"42.4617"},
{"name":"smart sense pain relief pm","category":"solution-oriented","address":"826 Corben Crossing","city":"Las Vegas","state":"NV","lat":"36.0914","lng":"35.0821"},
{"name":"Antibacterial Hand Mistletoe and Mint","category":"system-worthy","address":"450 Sunbrook Lane","city":"El Paso","state":"TX","lat":"31.6948","lng":"39.7155"},
{"name":"Tramadol Hydrochloride","category":"Innovative","address":"090 Hudson Court","city":"Temple","state":"TX","lat":"31.0363","lng":"35.0664"},
{"name":"Sinus Congestion and Pain","category":"Multi-layered","address":"7364 Jay Junction","city":"Winter Haven","state":"FL","lat":"27.981","lng":"33.2765"},
{"name":"SHISEIDO THE MAKEUP LIFTING FOUNDATION","category":"Universal","address":"1093 Declaration Park","city":"Sacramento","state":"CA","lat":"38.3774","lng":"37.4011"},
{"name":"No7 Protect and Perfect Foundation Sunscreen Broad Spectrum SPF 15 Wheat","category":"secondary","address":"30 Lerdahl Junction","city":"Evanston","state":"IL","lat":"42.0586","lng":"39.8188"},
{"name":"clarithromycin","category":"utilisation","address":"94415 Algoma Crossing","city":"El Paso","state":"TX","lat":"31.6948","lng":"41.3657"},
{"name":"Ampicillin","category":"encompassing","address":"507 Grover Hill","city":"Kansas City","state":"MO","lat":"39.2829","lng":"21.3278"},
{"name":"Hizentra","category":"Grass-roots","address":"101 Wayridge Lane","city":"Newport News","state":"VA","lat":"37.1959","lng":"33.5452"},
{"name":"Nighttime Cold and Flu","category":"application","address":"10 Golf View Center","city":"Kansas City","state":"KS","lat":"39.116","lng":"30.287"},
{"name":"Theochem Tea Tree Hand and Body Wash","category":"local area network","address":"2256 Shelley Place","city":"Charlotte","state":"NC","lat":"35.26","lng":"38.8933"},
{"name":"Didanosine","category":"secondary","address":"8864 Evergreen Park","city":"Modesto","state":"CA","lat":"37.6566","lng":"40.7808"},
{"name":"LoHist PEB","category":"Compatible","address":"38750 Anzinger Court","city":"Tacoma","state":"WA","lat":"47.3081","lng":"32.2691"},
{"name":"Wart Free","category":"Fundamental","address":"7 Spohn Pass","city":"Detroit","state":"MI","lat":"42.2166","lng":"45.9783"},
{"name":"RITE AID RENEWAL","category":"Pre-emptive","address":"6 Lotheville Terrace","city":"Nashville","state":"TN","lat":"36.1866","lng":"30.4481"},
{"name":"NORETHINDRONE","category":"value-added","address":"0 Manufacturers Road","city":"Philadelphia","state":"PA","lat":"40.0018","lng":"34.2006"},
{"name":"Cystografin","category":"bandwidth-monitored","address":"5409 Artisan Hill","city":"Pittsburgh","state":"PA","lat":"40.4598","lng":"38.8933"},
{"name":"Gas-X","category":"ability","address":"30606 Lakewood Lane","city":"San Jose","state":"CA","lat":"37.3729","lng":"32.7607"},
{"name":"OXYCODONE HYDROCHLORIDE","category":"Profit-focused","address":"883 Mitchell Avenue","city":"Houston","state":"TX","lat":"29.8744","lng":"41.7918"},
{"name":"Linden","category":"access","address":"2971 Steensland Street","city":"Rockford","state":"IL","lat":"42.3254","lng":"35.0981"},
{"name":"Daily Fade","category":"hierarchy","address":"41 Almo Trail","city":"Toledo","state":"OH","lat":"41.6782","lng":"30.6589"},
{"name":"Digoxin","category":"Reverse-engineered","address":"63266 Amoth Trail","city":"Louisville","state":"KY","lat":"38.189","lng":"33.5623"},
{"name":"NU-DERM SYSTEM NORMAL-DRY","category":"tangible","address":"20 Village Junction","city":"Atlanta","state":"GA","lat":"33.8444","lng":"41.0938"},
{"name":"Leader Cardinal Health Aspirin","category":"projection","address":"8 Lawn Lane","city":"Brooklyn","state":"NY","lat":"40.6412","lng":"33.7866"},
{"name":"Diclofenac Sodium","category":"Reactive","address":"783 Fairview Hill","city":"New Bedford","state":"MA","lat":"41.6913","lng":"32.7673"},
{"name":"Wheat Bunt","category":"Synergized","address":"18149 Shoshone Trail","city":"Cleveland","state":"OH","lat":"41.4335","lng":"30.2345"},
{"name":"ANTIBACTERIAL","category":"zero defect","address":"1690 Bultman Alley","city":"Virginia Beach","state":"VA","lat":"36.7957","lng":"33.5623"},
{"name":"Sunmark Calcium Antacid","category":"Exclusive","address":"2 School Drive","city":"Dallas","state":"TX","lat":"32.7673","lng":"38.8247"},
{"name":"up and up aspirin","category":"Future-proofed","address":"241 Coleman Circle","city":"Saint Paul","state":"MN","lat":"45.0059","lng":"32.7673"},
{"name":"Kirkland Signature Non Aspirin","category":"Polarised","address":"50560 Holy Cross Center","city":"Louisville","state":"KY","lat":"38.189","lng":"43.4599"},
{"name":"PHACE BIOACTIVE CLARIFYING SERUM","category":"concept","address":"960 Shelley Street","city":"Omaha","state":"NE","lat":"41.2933","lng":"40.7808"},
{"name":"up and up miconazole 7","category":"pricing structure","address":"6 Dawn Pass","city":"Reno","state":"NV","lat":"39.5224","lng":"34.8337"},
{"name":"DIZZINESS HP","category":"Ergonomic","address":"68 Eagle Crest Crossing","city":"Fort Wayne","state":"IN","lat":"41.0938","lng":"35.7977"},
{"name":"HyQvia","category":"logistical","address":"49303 Lakeland Place","city":"Lincoln","state":"NE","lat":"40.9008","lng":"42.2166"},
{"name":"meloxicam","category":"Devolved","address":"2 Morrow Court","city":"Syracuse","state":"NY","lat":"43.0214","lng":"41.7691"},
{"name":"ZANTAC","category":"6th generation","address":"33 Waxwing Way","city":"Washington","state":"DC","lat":"38.8874","lng":"33.8193"},
{"name":"OB Metab","category":"hardware","address":"0 Goodland Crossing","city":"Hicksville","state":"NY","lat":"40.7548","lng":"30.671"},
{"name":"ibuprofen","category":"maximized","address":"4243 Kennedy Road","city":"New York City","state":"NY","lat":"40.6964","lng":"38.8753"},
{"name":"Hydralazine Hydrochloride","category":"ability","address":"9173 Kropf Way","city":"Orlando","state":"FL","lat":"28.5456","lng":"47.9335"},
{"name":"Valacyclovir","category":"methodology","address":"67995 Little Fleur Junction","city":"Seattle","state":"WA","lat":"47.4441","lng":"34.0585"},
{"name":"Lidocaine","category":"function","address":"8921 Shopko Avenue","city":"Akron","state":"OH","lat":"41.1075","lng":"45.2009"},
{"name":"ONDANSETRON","category":"system-worthy","address":"10965 Shopko Way","city":"Jersey City","state":"NJ","lat":"40.7324","lng":"35.26"},
{"name":"Source Antibacterial Foaming Hand Original","category":"database","address":"5 Cardinal Way","city":"Boston","state":"MA","lat":"42.3389","lng":"27.4841"},
{"name":"Phoenix KinetiCream Anti-inflammatory and Pain Relief","category":"concept","address":"61 Graceland Drive","city":"Cincinnati","state":"OH","lat":"39.1075","lng":"33.0169"},
{"name":"Shagbark Hickory Pollen","category":"client-server","address":"2758 Crowley Plaza","city":"New Orleans","state":"LA","lat":"30.033","lng":"35.233"},
{"name":"Carvedilol","category":"concept","address":"38243 Fairfield Lane","city":"Saint Louis","state":"MO","lat":"38.6531","lng":"33.7866"},
{"name":"equate hemorrhodial suppositories","category":"zero defect","address":"81786 Summit Park","city":"Houston","state":"TX","lat":"29.834","lng":"33.9352"},
{"name":"Brevital Sodium","category":"Managed","address":"162 Oakridge Drive","city":"El Paso","state":"TX","lat":"31.6948","lng":"42.6395"},
{"name":"Ivy Dry","category":"Operative","address":"345 Little Fleur Pass","city":"Trenton","state":"NJ","lat":"40.2204","lng":"33.783"},
{"name":"Argentite Urtica","category":"Organized","address":"34085 Melody Lane","city":"Newport Beach","state":"CA","lat":"33.6062","lng":"30.2081"},
{"name":"Hydralazine Hydrochloride","category":"Business-focused","address":"30832 Hallows Point","city":"Chicago","state":"IL","lat":"41.8784","lng":"36.1114"},
{"name":"Glycopyrrolate","category":"Face to face","address":"95 Messerschmidt Circle","city":"Lexington","state":"KY","lat":"38.0702","lng":"28.0081"},
{"name":"Trazodone Hydrochloride","category":"solution","address":"9 Logan Avenue","city":"Washington","state":"DC","lat":"38.8933","lng":"40.9177"},
{"name":"allergy relief","category":"regional","address":"75 Hayes Court","city":"Tampa","state":"FL","lat":"27.872","lng":"31.8767"},
{"name":"Norpace","category":"moratorium","address":"2 Schmedeman Point","city":"Roanoke","state":"VA","lat":"37.2742","lng":"35.3471"},
{"name":"Amlodipine Besylate","category":"hierarchy","address":"11 Coolidge Parkway","city":"Atlanta","state":"GA","lat":"33.8444","lng":"33.9352"},
{"name":"DR. RECKEWEG R18 Cystophylin","category":"Enterprise-wide","address":"1830 Donald Pass","city":"New Orleans","state":"LA","lat":"30.033","lng":"41.6727"},
{"name":"SEA-CALM","category":"Sharable","address":"0 Hayes Center","city":"Boston","state":"MA","lat":"42.3823","lng":"37.6802"},
{"name":"Quality Choice Daytime Severe Cold and Cough","category":"stable","address":"228 Holy Cross Avenue","city":"San Antonio","state":"TX","lat":"29.3875","lng":"37.5535"},
{"name":"Waterless Hand Sanitizer","category":"Programmable","address":"2024 Rusk Parkway","city":"Hartford","state":"CT","lat":"41.7691","lng":"43.4599"},
{"name":"Enviro","category":"modular","address":"67784 Shopko Place","city":"Austin","state":"TX","lat":"30.4455","lng":"41.2933"},
{"name":"Albuterol Sulfate","category":"open architecture","address":"57070 6th Junction","city":"Bethlehem","state":"PA","lat":"40.6278","lng":"29.0838"},
{"name":"Trazodone Hydrochloride","category":"tangible","address":"027 Farragut Street","city":"Midland","state":"TX","lat":"32.0295","lng":"33.0169"},
{"name":"Oxcarbazepine","category":"info-mediaries","address":"949 Morning Terrace","city":"Muncie","state":"IN","lat":"40.2023","lng":"33.9631"},
{"name":"Loperamide Hydrochloride","category":"uniform","address":"92 Messerschmidt Hill","city":"Saint Louis","state":"MO","lat":"38.6383","lng":"27.6705"},
{"name":"Neupogen","category":"Object-based","address":"086 Golf Course Parkway","city":"Topeka","state":"KS","lat":"39.1271","lng":"40.3886"},
{"name":"Timolol Maleate","category":"standardization","address":"3 Sunfield Park","city":"Berkeley","state":"CA","lat":"37.8571","lng":"32.2832"},
{"name":"Western Family","category":"structure","address":"2 Thierer Pass","city":"Washington","state":"DC","lat":"38.945","lng":"40.7664"},
{"name":"carvedilol","category":"Business-focused","address":"2 Shoshone Trail","city":"Detroit","state":"MI","lat":"42.3749","lng":"32.7673"},
{"name":"Neomycin and Polymyxin B Sulfates and Gramicidin","category":"Team-oriented","address":"20 1st Street","city":"El Paso","state":"TX","lat":"31.7674","lng":"36.7464"},
{"name":"RYTHMOL","category":"directional","address":"703 Shoshone Point","city":"New York City","state":"NY","lat":"40.7808","lng":"30.3423"},
{"name":"hemorrhoidal","category":"incremental","address":"48 Rigney Road","city":"Portland","state":"OR","lat":"45.5287","lng":"39.9807"},
{"name":"Small Cuts and Burns","category":"impactful","address":"3 Artisan Pass","city":"Pueblo","state":"CO","lat":"38.1286","lng":"36.1866"},
{"name":"Preference Hand Sanitizer","category":"bottom-line","address":"706 Vermont Place","city":"Seattle","state":"WA","lat":"47.4497","lng":"29.6779"},
{"name":"Shopko Antibacterial Deep Cleansing Hand","category":"client-driven","address":"9536 Alpine Way","city":"Los Angeles","state":"CA","lat":"33.7866","lng":"41.6727"},
{"name":"SOLMATE","category":"monitoring","address":"20 Spenser Circle","city":"Lexington","state":"KY","lat":"38.0283","lng":"38.6111"},
{"name":"QUERCUS AGRIFOLIA POLLEN","category":"Synchronised","address":"3 Main Center","city":"Greensboro","state":"NC","lat":"36.0807","lng":"38.9035"},
{"name":"Promethazine with Codeine","category":"Seamless","address":"4990 Independence Hill","city":"Fort Pierce","state":"FL","lat":"27.3896","lng":"43.0631"},
{"name":"Levofloxacin","category":"reciprocal","address":"95722 Grasskamp Point","city":"Buffalo","state":"NY","lat":"42.8441","lng":"27.9951"},
{"name":"Donatussin DM Drops","category":"internet solution","address":"480 Melody Avenue","city":"Phoenix","state":"AZ","lat":"33.2765","lng":"43.3869"},
{"name":"Ursodiol","category":"grid-enabled","address":"9 Novick Junction","city":"Tulsa","state":"OK","lat":"36.1539","lng":"37.4376"},
{"name":"cold relief","category":"budgetary management","address":"43 Beilfuss Court","city":"Sacramento","state":"CA","lat":"38.5568","lng":"30.4124"},
{"name":"Sterile Diluent for Allergenic Extract","category":"website","address":"7 Paget Hill","city":"San Jose","state":"CA","lat":"37.3894","lng":"34.0434"},
{"name":"LYSOL Healthy Touch","category":"5th generation","address":"310 Myrtle Avenue","city":"Milwaukee","state":"WI","lat":"43.006","lng":"35.4242"},
{"name":"Diltiazem Hydrochloride","category":"impactful","address":"922 Holmberg Pass","city":"Knoxville","state":"TN","lat":"35.9901","lng":"38.8247"},
{"name":"Non-Habit Forming Stool Softener","category":"extranet","address":"9 Linden Parkway","city":"Milwaukee","state":"WI","lat":"43.0685","lng":"41.8119"},
{"name":"OASIS Tears Multidose","category":"Implemented","address":"8 Hovde Court","city":"Peoria","state":"IL","lat":"40.7681","lng":"38.8992"},
{"name":"METOPROLOL TARTRATE","category":"Face to face","address":"78164 Monica Hill","city":"Columbus","state":"MS","lat":"33.5508","lng":"39.7388"},
{"name":"Risperidone","category":"maximized","address":"40 Pleasure Pass","city":"Jackson","state":"TN","lat":"35.6124","lng":"32.7673"},
{"name":"Cefuroxime Axetil","category":"support","address":"24 Ohio Street","city":"Brooklyn","state":"NY","lat":"40.6451","lng":"36.1398"},
{"name":"POTASSIUM CHLORIDE","category":"neural-net","address":"6 Westport Place","city":"Albany","state":"NY","lat":"42.6853","lng":"41.7665"},
{"name":"Losortan Potassium","category":"User-centric","address":"773 Schiller Terrace","city":"Orlando","state":"FL","lat":"28.5663","lng":"28.0081"},
{"name":"MOZI-Qfor kids and infa","category":"synergy","address":"54405 Gulseth Parkway","city":"Honolulu","state":"HI","lat":"21.3062","lng":"40.4344"},
{"name":"CHENOPODIUM ALBUM POLLEN","category":"service-desk","address":"243 Dayton Point","city":"Nashville","state":"TN","lat":"36.1866","lng":"35.22"},
{"name":"Azithromycin","category":"Triple-buffered","address":"22498 Paget Street","city":"Colorado Springs","state":"CO","lat":"38.9497","lng":"47.4441"},
{"name":"Methimazole","category":"success","address":"1264 Westridge Street","city":"Akron","state":"OH","lat":"41.1287","lng":"43.5486"},
{"name":"CALMS NERVE TENSION SLEEPLESSNESS","category":"Right-sized","address":"802 Toban Drive","city":"Baton Rouge","state":"LA","lat":"30.3795","lng":"47.6536"},
{"name":"Fosrenol","category":"multimedia","address":"74 John Wall Park","city":"Roanoke","state":"VA","lat":"37.2742","lng":"33.7074"},
{"name":"THE TREATMENT POWDER FOUNDATION","category":"solution-oriented","address":"87 Burrows Hill","city":"Raleigh","state":"NC","lat":"35.7977","lng":"47.3081"},
{"name":"Xyzal","category":"actuating","address":"22774 Laurel Road","city":"Pittsburgh","state":"PA","lat":"40.4344","lng":"40.7864"},
{"name":"Antihistamine Allergy","category":"Implemented","address":"43204 Grasskamp Drive","city":"Huntsville","state":"AL","lat":"34.734","lng":"38.0638"},
{"name":"Lidocaine Hydrochloride and Dextrose","category":"bandwidth-monitored","address":"5 Old Shore Street","city":"Vienna","state":"VA","lat":"38.8318","lng":"37.9651"},
{"name":"Adoxa","category":"intranet","address":"3 Stang Point","city":"Houston","state":"TX","lat":"29.834","lng":"28.0081"},
{"name":"Gehwol Nail Protection Pen","category":"contingency","address":"9 Shasta Street","city":"Harrisburg","state":"PA","lat":"40.303","lng":"35.216"},
{"name":"NHS Flatulance Slow Digestion","category":"hybrid","address":"68567 Hanover Court","city":"Topeka","state":"KS","lat":"39.0429","lng":"39.0853"},
{"name":"MUSCLE SPASMS","category":"Synchronised","address":"0 Center Plaza","city":"Fort Worth","state":"TX","lat":"32.6796","lng":"34.8019"},
{"name":"Famotidine","category":"complexity","address":"822 Fordem Hill","city":"Atlanta","state":"GA","lat":"33.8444","lng":"41.2917"},
{"name":"Heparin Sodium","category":"leverage","address":"9 Southridge Park","city":"Huntsville","state":"AL","lat":"34.734","lng":"61.204"},
{"name":"Day Time Night Time","category":"Advanced","address":"284 Nova Place","city":"Washington","state":"DC","lat":"38.8933","lng":"38.7378"},
{"name":"SHISEIDO THE SKINCARE PROTECTIVE LIP CONDITIONER","category":"mobile","address":"057 Sunfield Alley","city":"Detroit","state":"MI","lat":"42.2719","lng":"33.8932"},
{"name":"Olanzapine","category":"product","address":"0832 Northfield Park","city":"Jackson","state":"MS","lat":"32.2832","lng":"37.7848"},
{"name":"Darby","category":"uniform","address":"7498 Maryland Way","city":"Phoenix","state":"AZ","lat":"33.4226","lng":"35.233"},
{"name":"Horseradish","category":"success","address":"2 Fairview Circle","city":"Baton Rouge","state":"LA","lat":"30.392","lng":"41.6538"},
{"name":"Careone night time severe cold and cough","category":"service-desk","address":"13640 Sunfield Alley","city":"Cincinnati","state":"OH","lat":"39.2692","lng":"38.7378"},
{"name":"Daytime Defense SPF 30","category":"parallelism","address":"29293 High Crossing Circle","city":"Buffalo","state":"NY","lat":"42.8441","lng":"41.3657"},
{"name":"Ciprofloxacin","category":"Horizontal","address":"8 Chive Hill","city":"Duluth","state":"MN","lat":"46.8147","lng":"35.3425"},
{"name":"Bisacodyl","category":"productivity","address":"847 Northwestern Terrace","city":"New York City","state":"NY","lat":"40.7808","lng":"34.7269"},
{"name":"Zeel","category":"Versatile","address":"920 Reinke Alley","city":"Brooklyn","state":"NY","lat":"40.6669","lng":"28.5803"},
{"name":"Vicks QlearQuil","category":"Down-sized","address":"46251 Vermont Road","city":"Myrtle Beach","state":"SC","lat":"33.7377","lng":"29.4189"},
{"name":"good sense sleep time","category":"Stand-alone","address":"46 Jenifer Junction","city":"Indianapolis","state":"IN","lat":"39.7673","lng":"32.8479"},
{"name":"Metronidazole","category":"Face to face","address":"2 Mariners Cove Avenue","city":"Washington","state":"DC","lat":"38.8933","lng":"26.6104"},
{"name":"Bupropion Hydrochloride","category":"Universal","address":"295 Chinook Parkway","city":"Jacksonville","state":"FL","lat":"30.287","lng":"38.0283"},
{"name":"Alprazolam","category":"workforce","address":"20 Ryan Alley","city":"Yonkers","state":"NY","lat":"40.9177","lng":"41.613"},
{"name":"Amitriptyline Hydrochloride","category":"Progressive","address":"20755 Swallow Avenue","city":"Washington","state":"DC","lat":"38.8933","lng":"32.7582"},
{"name":"Sumatriptan Succinate","category":"didactic","address":"199 Anzinger Street","city":"Newton","state":"MA","lat":"42.3319","lng":"39.6255"},
{"name":"REYATAZ","category":"firmware","address":"074 Carpenter Alley","city":"Tacoma","state":"WA","lat":"47.2325","lng":"44.9364"},
{"name":"Banana Boat Ultra Defence SPF 30 for UK","category":"Configurable","address":"15650 Corry Terrace","city":"Orlando","state":"FL","lat":"28.5679","lng":"32.7673"},
{"name":"ARTEMISIA VULGARIS POLLEN","category":"multi-state","address":"226 Macpherson Street","city":"Birmingham","state":"AL","lat":"33.3813","lng":"40.6681"},
{"name":"GABAPENTIN","category":"intermediate","address":"456 Kenwood Lane","city":"Raleigh","state":"NC","lat":"35.7977","lng":"27.9246"},
{"name":"Buckwheat Grain","category":"well-modulated","address":"1 Valley Edge Drive","city":"Lubbock","state":"TX","lat":"33.5693","lng":"41.119"},
{"name":"Bupropion Hydrochloride","category":"access","address":"1 Roth Trail","city":"Saint Paul","state":"MN","lat":"45.0059","lng":"36.0218"},
{"name":"Ephed 60","category":"artificial intelligence","address":"3761 Reinke Junction","city":"Erie","state":"PA","lat":"42.1827","lng":"30.3449"},
{"name":"Cauliflower","category":"conglomeration","address":"36064 Cardinal Crossing","city":"Bradenton","state":"FL","lat":"27.4841","lng":"40.7808"},
{"name":"Doxycycline Hyclate","category":"optimizing","address":"8883 Onsgard Crossing","city":"Jersey City","state":"NJ","lat":"40.7324","lng":"41.249"},
{"name":"UV Shield SPF 42","category":"Re-engineered","address":"00 Crownhardt Street","city":"Anderson","state":"SC","lat":"34.5271","lng":"41.8784"},
{"name":"Metoclopramide","category":"real-time","address":"6 Logan Parkway","city":"Austin","state":"TX","lat":"30.3264","lng":"34.734"},
{"name":"Dextroamphetamine saccharate, amphetamine aspartate monohydrate, dextroamphetamine sulfate, amphetamine sulfate","category":"Quality-focused","address":"69201 Mccormick Junction","city":"Racine","state":"WI","lat":"42.7161","lng":"40.6964"},
{"name":"ALOE VESTA PROTECTIVE","category":"knowledge user","address":"8 Fallview Street","city":"Pinellas Park","state":"FL","lat":"27.8402","lng":"38.8933"},
{"name":"BAROX","category":"Intuitive","address":"14656 Fisk Lane","city":"New Haven","state":"CT","lat":"41.3657","lng":"30.3423"},
{"name":"Osphena","category":"Team-oriented","address":"703 Gina Trail","city":"Fort Wayne","state":"IN","lat":"41.0977","lng":"29.4375"},
{"name":"Kroger Value Aspirin","category":"methodology","address":"23807 Eliot Avenue","city":"Washington","state":"DC","lat":"38.8933","lng":"36.0777"},
{"name":"Testosterone Cypionate","category":"4th generation","address":"9030 Brown Trail","city":"Houston","state":"TX","lat":"29.8159","lng":"38.4134"},
{"name":"childrens pain and fever","category":"zero administration","address":"2 Brickson Park Point","city":"Phoenix","state":"AZ","lat":"33.2765","lng":"26.0185"},
{"name":"HYDROCODONE BITARTRATE AND ACETAMINOPHEN","category":"scalable","address":"82686 Esker Point","city":"Dayton","state":"OH","lat":"39.7505","lng":"38.8933"},
{"name":"Nifedipine","category":"success","address":"8 Messerschmidt Road","city":"Cleveland","state":"OH","lat":"41.4509","lng":"39.731"},
{"name":"epinephrine","category":"Face to face","address":"3662 Ronald Regan Hill","city":"Charlotte","state":"NC","lat":"35.22","lng":"30.6589"},
{"name":"Rugby Heartburn Treatment","category":"Future-proofed","address":"3143 Fairfield Parkway","city":"Reno","state":"NV","lat":"40.5412","lng":"29.4375"},
{"name":"CENTER-AL - POA PRATENSIS POLLEN","category":"Focused","address":"5 Loftsgordon Street","city":"Marietta","state":"GA","lat":"33.9328","lng":"31.1721"},
{"name":"Butalbital, Acetaminophen, and Caffeine","category":"product","address":"449 Moland Way","city":"Brooklyn","state":"NY","lat":"40.6628","lng":"30.0005"},
{"name":"Quetiapine fumarate","category":"composite","address":"98 Weeping Birch Drive","city":"Van Nuys","state":"CA","lat":"34.1781","lng":"30.4455"},
{"name":"Sorbet APF","category":"infrastructure","address":"9 Superior Drive","city":"Shreveport","state":"LA","lat":"32.6076","lng":"40.7808"},
{"name":"Carelessweed","category":"Operative","address":"4417 Nevada Junction","city":"Washington","state":"DC","lat":"38.8933","lng":"33.9677"},
{"name":"Softlips Tint","category":"website","address":"55559 Trailsway Hill","city":"Greenville","state":"SC","lat":"34.8497","lng":"45.484"},
{"name":"Cefuroxime Axetil","category":"infrastructure","address":"27 Schiller Parkway","city":"Lexington","state":"KY","lat":"38.0283","lng":"27.9953"},
{"name":"UV Capture Sun BB","category":"Exclusive","address":"1 Maple Drive","city":"Portland","state":"OR","lat":"45.484","lng":"38.9327"},
{"name":"HOLCUS LANATUS POLLEN","category":"needs-based","address":"0043 Burning Wood Terrace","city":"Birmingham","state":"AL","lat":"33.5446","lng":"40.9252"},
{"name":"Brewers Yeast","category":"Versatile","address":"5314 Hanover Plaza","city":"Pittsburgh","state":"PA","lat":"40.4072","lng":"38.1286"},
{"name":"Losartan Potassium and Hydrochlorothiazide","category":"benchmark","address":"0433 Oakridge Trail","city":"Saint Louis","state":"MO","lat":"38.6531","lng":"26.1654"},
{"name":"Chamomilla Cupro 3 Special Order","category":"product","address":"528 Sugar Trail","city":"Fargo","state":"ND","lat":"46.9346","lng":"35.26"},
{"name":"PMS HP","category":"Organized","address":"660 Chive Parkway","city":"Atlanta","state":"GA","lat":"33.8913","lng":"47.4323"},
{"name":"GAMMAGARD","category":"groupware","address":"7 Mariners Cove Junction","city":"North Hollywood","state":"CA","lat":"33.7866","lng":"40.7911"},
{"name":"MISSHA TIME REVOLUTION WHITE CURE BLANC SUN PROTECTOR","category":"Cloned","address":"53956 Sloan Parkway","city":"Washington","state":"DC","lat":"38.8933","lng":"37.7211"},
{"name":"DIVALPROEX SODIUM","category":"uniform","address":"5 Charing Cross Point","city":"New York City","state":"NY","lat":"40.7611","lng":"30.3633"},
{"name":"Penicillin V Potassium","category":"Front-line","address":"652 Grayhawk Trail","city":"Charleston","state":"WV","lat":"38.2968","lng":"42.5992"},
{"name":"antibacterial hand","category":"leading edge","address":"64 Maple Wood Street","city":"Savannah","state":"GA","lat":"32.0391","lng":"38.0401"},
{"name":"dicyclomine hydrochloride","category":"orchestration","address":"23 Carberry Alley","city":"New Hyde Park","state":"NY","lat":"40.7548","lng":"42.6853"},
{"name":"Piroxicam","category":"Distributed","address":"52050 Bonner Center","city":"San Jose","state":"CA","lat":"37.31","lng":"26.6459"},
{"name":"Protamine Sulfate","category":"Configurable","address":"08016 Shasta Center","city":"New Castle","state":"PA","lat":"40.9897","lng":"40.7259"},
{"name":"Illuminating Daily Moisturizer","category":"Face to face","address":"16593 Clemons Crossing","city":"Houston","state":"TX","lat":"29.834","lng":"38.8318"},
{"name":"Low-Ogestrel","category":"Optimized","address":"13 Kinsman Plaza","city":"Canton","state":"OH","lat":"40.8259","lng":"40.081"},
{"name":"CVS Hemorrhoidal Topical Analgesic","category":"encoding","address":"90037 Daystar Circle","city":"Fairfield","state":"CT","lat":"41.1928","lng":"44.9364"},
{"name":"BareMinerals Deepest Deep matte","category":"archive","address":"06 Mallard Center","city":"Midland","state":"TX","lat":"31.8693","lng":"39.9772"},
{"name":"Nausea Vomiting","category":"Devolved","address":"87 Kingsford Drive","city":"Juneau","state":"AK","lat":"58.3271","lng":"35.9279"},
{"name":"Imipramine Pamoate","category":"eco-centric","address":"0 Reinke Place","city":"Baton Rouge","state":"LA","lat":"30.5159","lng":"29.6813"},
{"name":"IT RADIANT CC IN MELTING FOUNDATION","category":"impactful","address":"9868 Brickson Park Point","city":"Baltimore","state":"MD","lat":"39.3316","lng":"35.9918"},
{"name":"Mirtazapine","category":"local area network","address":"808 La Follette Point","city":"New Orleans","state":"LA","lat":"30.0071","lng":"41.2949"},
{"name":"Acetaminophen And Codeine","category":"Grass-roots","address":"91364 Lakewood Gardens Place","city":"Clearwater","state":"FL","lat":"27.9654","lng":"30.3264"},
{"name":"equaline nasal decongestant","category":"Streamlined","address":"440 Blaine Pass","city":"Los Angeles","state":"CA","lat":"33.7866","lng":"41.5968"},
{"name":"Hydrocodone Bitartrate and Acetaminophen","category":"moratorium","address":"40058 Ridgeview Court","city":"Olympia","state":"WA","lat":"47.1042","lng":"33.7843"},
{"name":"BZK","category":"cohesive","address":"34828 Manley Trail","city":"Tallahassee","state":"FL","lat":"30.5422","lng":"47.6964"},
{"name":"Ultrasol","category":"conglomeration","address":"11 International Avenue","city":"Simi Valley","state":"CA","lat":"34.0324","lng":"26.5747"},
{"name":"AMITRIPTYLINE HYDROCHLORIDE","category":"Phased","address":"50626 Clarendon Crossing","city":"Springfield","state":"VA","lat":"38.8318","lng":"35.0549"},
{"name":"Trichothecium roseum","category":"content-based","address":"80 Mccormick Trail","city":"Inglewood","state":"CA","lat":"33.7866","lng":"41.6727"},
{"name":"hydrocodone bitartrate and acetaminophen","category":"client-server","address":"39369 Hollow Ridge Park","city":"Decatur","state":"IL","lat":"39.854","lng":"32.3366"},
{"name":"Neosporin Lip Health","category":"open system","address":"02340 Sunbrook Hill","city":"Bellevue","state":"WA","lat":"47.6115","lng":"43.1367"},
{"name":"Dexbrompherniramine Maleate and Pseudoephedrine Sulfate","category":"Customer-focused","address":"0801 Clove Crossing","city":"Greensboro","state":"NC","lat":"36.0807","lng":"35.4015"},
{"name":"Standardized Meadow Fescue Grass Pollen","category":"time-frame","address":"5509 Cordelia Center","city":"Austin","state":"TX","lat":"30.4455","lng":"40.5009"},
{"name":"ARTISS","category":"multi-tasking","address":"4764 Park Meadow Drive","city":"Corona","state":"CA","lat":"33.7529","lng":"32.7714"},
{"name":"Bupivacaine Hydrochloride","category":"Organized","address":"09 Shelley Hill","city":"Shawnee Mission","state":"KS","lat":"38.949","lng":"29.7971"},
{"name":"Carrington Moisture Barrier","category":"implementation","address":"1788 Longview Crossing","city":"Flint","state":"MI","lat":"43.0113","lng":"32.0053"},
{"name":"Artificial Tears","category":"Decentralized","address":"0510 Lien Crossing","city":"Pensacola","state":"FL","lat":"30.4481","lng":"41.9453"},
{"name":"North Burn","category":"system-worthy","address":"89968 Westend Place","city":"Hialeah","state":"FL","lat":"25.8594","lng":"39.0853"},
{"name":"Crest Complete Multi-Benefit","category":"4th generation","address":"1771 Doe Crossing Parkway","city":"Des Moines","state":"IA","lat":"41.5444","lng":"33.7406"},
{"name":"Chap-et","category":"emulation","address":"6 Delaware Junction","city":"Tampa","state":"FL","lat":"27.872","lng":"38.8545"},
{"name":"Total Protrector 15","category":"client-driven","address":"85582 David Drive","city":"Yonkers","state":"NY","lat":"40.9177","lng":"36.2158"},
{"name":"Chicken","category":"neutral","address":"75197 Northview Place","city":"Houston","state":"TX","lat":"29.8159","lng":"26.0989"},
{"name":"Health Smart Creamy Petroleum","category":"service-desk","address":"11 Hudson Alley","city":"Sarasota","state":"FL","lat":"27.2427","lng":"27.1675"},
{"name":"Doxazosin","category":"Ergonomic","address":"568 Chive Junction","city":"York","state":"PA","lat":"40.0086","lng":"41.3657"},
{"name":"Lunesta","category":"forecast","address":"11090 Golden Leaf Pass","city":"Modesto","state":"CA","lat":"37.6566","lng":"35.26"},
{"name":"FENTANYL CITRATE","category":"hub","address":"1481 Holy Cross Park","city":"Annapolis","state":"MD","lat":"39.0305","lng":"41.1257"},
{"name":"NICOTROL","category":"3rd generation","address":"86966 Everett Hill","city":"Independence","state":"MO","lat":"39.11","lng":"38.2222"},
{"name":"GODDESS GARDEN ORGANICS Lavender Mint DAILY BROAD SPECTRUM SPF 15","category":"leading edge","address":"3 Steensland Alley","city":"New York City","state":"NY","lat":"40.7808","lng":"39.2847"},
{"name":"hydrochlorothiazide","category":"database","address":"632 Barnett Drive","city":"Amarillo","state":"TX","lat":"35.4015","lng":"44.0185"},
{"name":"Orapred","category":"model","address":"0 Ramsey Alley","city":"Brooklyn","state":"NY","lat":"40.6451","lng":"33.5225"},
{"name":"Furosemide","category":"national","address":"4656 Lyons Park","city":"Oakland","state":"CA","lat":"37.6802","lng":"35.4794"},
{"name":"Gillette Clear","category":"next generation","address":"393 Fuller Parkway","city":"Lexington","state":"KY","lat":"38.0702","lng":"33.2765"},
{"name":"E.E.S","category":"forecast","address":"40637 Kingsford Street","city":"Baltimore","state":"MD","lat":"39.2933","lng":"43.5851"},
{"name":"LOESTRIN 21 1.5/30","category":"moderator","address":"72264 Florence Place","city":"Modesto","state":"CA","lat":"37.6566","lng":"38.8874"},
{"name":"AGE DEFENSE BB BROAD SPECTRUM SPF 30 ALL SKIN TYPES","category":"Profit-focused","address":"9792 Bay Park","city":"Cincinnati","state":"OH","lat":"39.1802","lng":"33.9367"},
{"name":"ENTOCORT","category":"firmware","address":"50313 3rd Terrace","city":"Flushing","state":"NY","lat":"40.6514","lng":"61.204"},
{"name":"CS-Ovary","category":"Function-based","address":"92 Namekagon Terrace","city":"Detroit","state":"MI","lat":"42.2399","lng":"47.116"},
{"name":"DryMax","category":"Assimilated","address":"43410 Nova Lane","city":"Louisville","state":"KY","lat":"38.189","lng":"40.7442"},
{"name":"nicotine mini","category":"extranet","address":"3024 Twin Pines Avenue","city":"South Bend","state":"IN","lat":"41.5968","lng":"31.2034"},
{"name":"Citalopram","category":"secured line","address":"88476 Harper Plaza","city":"Omaha","state":"NE","lat":"41.2064","lng":"41.6857"},
{"name":"EX-LAX","category":"Networked","address":"9 Old Shore Terrace","city":"Portland","state":"OR","lat":"45.5806","lng":"39.1271"},
{"name":"Walgreens Zinc Oxide","category":"Re-engineered","address":"423 Maple Wood Point","city":"Colorado Springs","state":"CO","lat":"38.8558","lng":"37.8571"},
{"name":"MORUS RUBRA POLLEN","category":"open architecture","address":"94 Lighthouse Bay Plaza","city":"Kansas City","state":"MO","lat":"38.9621","lng":"34.2628"},
{"name":"dg health calcium antacid","category":"holistic","address":"21 Coolidge Center","city":"Fresno","state":"CA","lat":"36.7464","lng":"40.6914"},
{"name":"UltrasolSunscreen","category":"moratorium","address":"29726 Main Road","city":"Canton","state":"OH","lat":"40.7911","lng":"40.7845"},
{"name":"Carvedilol","category":"Customer-focused","address":"46542 Barnett Junction","city":"Las Vegas","state":"NV","lat":"36.086","lng":"33.0169"},
{"name":"Roll On Anti Perspirant","category":"zero defect","address":"24400 Lillian Circle","city":"Oklahoma City","state":"OK","lat":"35.4242","lng":"35.5514"},
{"name":"clonidine hydrochloride","category":"benchmark","address":"96817 Macpherson Lane","city":"Oakland","state":"CA","lat":"37.8044","lng":"35.2017"},
{"name":"Vancomycin Hydrochloride","category":"hub","address":"10 Kinsman Circle","city":"Levittown","state":"PA","lat":"40.3286","lng":"39.7388"},
{"name":"Orange Clove Antibacterial Foaming Hand Wash","category":"web-enabled","address":"064 Pepper Wood Alley","city":"Saint Petersburg","state":"FL","lat":"27.8918","lng":"33.8444"},
{"name":"MEDI-DERM / L WITH LIDOCAINE","category":"hierarchy","address":"4987 Bobwhite Lane","city":"Colorado Springs","state":"CO","lat":"38.8247","lng":"41.6727"},
{"name":"Hydrocodone Bitartrate And Acetaminophen","category":"Re-contextualized","address":"62475 Roth Circle","city":"Fresno","state":"CA","lat":"36.7464","lng":"27.709"},
{"name":"Olanzapine","category":"interactive","address":"20 Barby Junction","city":"Pensacola","state":"FL","lat":"30.4481","lng":"41.5503"},
{"name":"Micardis HCT","category":"Multi-layered","address":"0 Northview Place","city":"Brea","state":"CA","lat":"33.9187","lng":"38.4386"},
{"name":"Rimmel London","category":"content-based","address":"8334 5th Terrace","city":"Miami","state":"FL","lat":"25.6615","lng":"26.5354"},
{"name":"Ceftriaxone","category":"access","address":"0416 Grasskamp Hill","city":"Young America","state":"MN","lat":"44.8055","lng":"33.7866"},
{"name":"Lisinopril","category":"challenge","address":"37988 Butterfield Pass","city":"Odessa","state":"TX","lat":"31.7466","lng":"32.8756"},
{"name":"clindamycin hydrochloride","category":"Progressive","address":"73149 Coleman Drive","city":"Dallas","state":"TX","lat":"32.7942","lng":"42.1827"},
{"name":"CHAMOMILLA","category":"client-server","address":"8108 Hollow Ridge Terrace","city":"Los Angeles","state":"CA","lat":"33.7866","lng":"39.6269"},
{"name":"Caribbean Escape Anti Bacterial Hand Sanitizer","category":"Automated","address":"349 Carey Circle","city":"Biloxi","state":"MS","lat":"30.4067","lng":"38.8289"},
{"name":"Candesartan Cilexetil and Hydrochlorothiazide","category":"Seamless","address":"0442 Sundown Drive","city":"Spokane","state":"WA","lat":"47.6536","lng":"37.799"},
{"name":"ASPERGILLUS NIGER","category":"pricing structure","address":"53541 Artisan Alley","city":"Huntington","state":"WV","lat":"38.4134","lng":"39.2847"},
{"name":"Atenolol","category":"didactic","address":"498 Division Center","city":"Jacksonville","state":"FL","lat":"30.329","lng":"35.411"},
{"name":"Cyclobenzaprine Hydrochloride","category":"functionalities","address":"91361 Moose Lane","city":"Nashville","state":"TN","lat":"36.1866","lng":"29.7543"},
{"name":"Pain Relief BalmPreferred Plus Ph","category":"Organized","address":"9003 Lawn Place","city":"Lansing","state":"MI","lat":"42.7325","lng":"45.0159"},
{"name":"Carduus Oxalis","category":"modular","address":"11 Sugar Street","city":"Oakland","state":"CA","lat":"37.7641","lng":"42.1827"},
{"name":"Berri-Freez","category":"didactic","address":"13 Melody Parkway","city":"Louisville","state":"KY","lat":"38.2306","lng":"39.7038"},
{"name":"SUNZONE SPORT SUNSCREEN SPF 30","category":"Re-engineered","address":"676 Scott Junction","city":"Cincinnati","state":"OH","lat":"39.1848","lng":"41.0957"},
{"name":"ROBINIA PSEUDOACACIA POLLEN","category":"Persevering","address":"12 Cherokee Road","city":"Jackson","state":"MS","lat":"32.2832","lng":"33.3887"},
{"name":"Dextroamphetamine Saccharate, Amphetamine Aspartate, Dextroamphetamine Sulfate and Amphetamine Sulfate","category":"grid-enabled","address":"01 Claremont Park","city":"Akron","state":"OH","lat":"41.0655","lng":"40.081"},
{"name":"MELAMIX Skin Lightener and Blending","category":"standardization","address":"177 Loftsgordon Alley","city":"Atlanta","state":"GA","lat":"33.8444","lng":"27.881"},
{"name":"Perfect Calming Toner","category":"explicit","address":"69 Fisk Parkway","city":"Lexington","state":"KY","lat":"38.0283","lng":"38.4142"},
{"name":"Cucumber","category":"Face to face","address":"809 Sugar Hill","city":"West Hartford","state":"CT","lat":"41.7918","lng":"40.4322"},
{"name":"amlodipine besylate and atorvastatin calcium","category":"structure","address":"300 Mendota Way","city":"New York City","state":"NY","lat":"40.8265","lng":"41.5503"},
{"name":"Epinephrine","category":"Horizontal","address":"11316 Mccormick Street","city":"Albany","state":"NY","lat":"42.6149","lng":"33.783"},
{"name":"Lipitor","category":"Distributed","address":"27616 Cordelia Street","city":"Roanoke","state":"VA","lat":"37.2742","lng":"35.4242"},
{"name":"TOPIRAMATE","category":"Diverse","address":"35 Hayes Parkway","city":"Norfolk","state":"VA","lat":"36.9312","lng":"47.4323"},
{"name":"EROS FISTING GEL","category":"Phased","address":"5998 Old Gate Junction","city":"San Diego","state":"CA","lat":"33.0169","lng":"35.1114"},
{"name":"A.B.H.C. Instant Hand Sanitizer Citrus Scent","category":"Innovative","address":"51 Warner Hill","city":"Athens","state":"GA","lat":"33.9443","lng":"34.0529"},
{"name":"Oxycodone and Acetaminophen","category":"Total","address":"8 Spohn Parkway","city":"Saint Petersburg","state":"FL","lat":"27.8918","lng":"30.4124"},
{"name":"Irritated Eye","category":"interface","address":"36 Mesta Trail","city":"San Jose","state":"CA","lat":"37.3378","lng":"44.9378"},
{"name":"Moisture Renew","category":"eco-centric","address":"124 Debs Junction","city":"El Paso","state":"TX","lat":"31.6948","lng":"37.9651"},
{"name":"Citrus Breeze Antibacterial Foaming Hand Wash","category":"heuristic","address":"81 Sachs Lane","city":"Oklahoma City","state":"OK","lat":"35.3425","lng":"33.7843"},
{"name":"Ciprofloxacin","category":"pricing structure","address":"8062 Vermont Junction","city":"Fairfield","state":"CT","lat":"41.1928","lng":"26.6644"},
{"name":"Vancomycin Hydrochloride","category":"leading edge","address":"986 Redwing Trail","city":"Nashville","state":"TN","lat":"36.1866","lng":"40.7918"},
{"name":"Burn","category":"workforce","address":"30279 Clarendon Park","city":"Columbia","state":"MO","lat":"38.9033","lng":"38.8158"},
{"name":"SODIUM SULFACETAMIDE, SULFUR","category":"Multi-lateral","address":"17453 Kedzie Place","city":"South Lake Tahoe","state":"CA","lat":"38.8753","lng":"38.8933"},
{"name":"Saline Laxative","category":"full-range","address":"14486 Lerdahl Center","city":"White Plains","state":"NY","lat":"41.119","lng":"30.4793"},
{"name":"OXY","category":"middleware","address":"76 2nd Way","city":"Amarillo","state":"TX","lat":"35.216","lng":"32.4665"},
{"name":"Infants pain relief","category":"task-force","address":"16 Mosinee Street","city":"Washington","state":"DC","lat":"38.8933","lng":"41.7918"},
{"name":"Mandarin Nectar Antibacterial Foaming Handwash","category":"demand-driven","address":"694 Michigan Circle","city":"Buffalo","state":"NY","lat":"42.8614","lng":"40.754"},
{"name":"Sun Shades Lip Balm","category":"next generation","address":"3897 Dorton Park","city":"Indianapolis","state":"IN","lat":"39.7795","lng":"46.9346"},
{"name":"Chlordiazepoxide Hydrochloride","category":"Versatile","address":"56772 Havey Drive","city":"Pensacola","state":"FL","lat":"30.4061","lng":"36.1398"},
{"name":"Anticavity Fluoride Rinse","category":"software","address":"3 Nova Park","city":"Philadelphia","state":"PA","lat":"39.9379","lng":"41.9166"},
{"name":"Ipratropium Bromide","category":"national","address":"82 Holy Cross Street","city":"Billings","state":"MT","lat":"45.9497","lng":"32.7673"},
{"name":"LISINOPRIL","category":"exuding","address":"42379 Brentwood Crossing","city":"Saint Paul","state":"MN","lat":"44.806","lng":"40.8529"},
{"name":"Vitamin K1","category":"systemic","address":"6 Hovde Avenue","city":"Philadelphia","state":"PA","lat":"40.0018","lng":"33.7866"},
{"name":"Vitamin A and D","category":"emulation","address":"14 Green Ridge Street","city":"Nashville","state":"TN","lat":"36.0986","lng":"38.5495"},
{"name":"Sun Shades Lip Balm","category":"approach","address":"48530 Harbort Plaza","city":"Pittsburgh","state":"PA","lat":"40.4344","lng":"38.7072"},
{"name":"ck one 3-in-1 face makeup","category":"hub","address":"646 Colorado Circle","city":"Cincinnati","state":"OH","lat":"39.0706","lng":"38.8893"},
{"name":"Standardized Grass Pollen, Fescue, Meadow","category":"Sharable","address":"9747 Hagan Avenue","city":"Brooklyn","state":"NY","lat":"40.6451","lng":"32.7714"},
{"name":"NITROGEN","category":"Business-focused","address":"01 Westend Place","city":"Baton Rouge","state":"LA","lat":"30.4558","lng":"39.6255"},
{"name":"cold and allergy relief","category":"Synchronised","address":"3 Mendota Lane","city":"Kansas City","state":"MO","lat":"39.1042","lng":"33.783"},
{"name":"Acyclovir","category":"Assimilated","address":"9 American Ash Street","city":"San Antonio","state":"TX","lat":"29.4375","lng":"39.7505"},
{"name":"Medique Diphen","category":"Progressive","address":"85 Moulton Crossing","city":"Chicago","state":"IL","lat":"41.8756","lng":"31.6948"},
{"name":"Mometasone Furoate","category":"firmware","address":"0793 Esch Lane","city":"Anchorage","state":"AK","lat":"61.1901","lng":"40.7918"},
{"name":"Secura Antifungal","category":"local","address":"07 Sherman Circle","city":"Huntington","state":"WV","lat":"38.4134","lng":"33.7866"},
{"name":"Exchange Select Kids Sunscreen","category":"project","address":"73 Dennis Avenue","city":"Newton","state":"MA","lat":"42.3319","lng":"38.8933"},
{"name":"INSTANT HAND SANITIZER","category":"clear-thinking","address":"5 Dunning Circle","city":"Topeka","state":"KS","lat":"39.0429","lng":"40.4344"},
{"name":"Sotalol Hydrochloride","category":"Re-contextualized","address":"40581 Fieldstone Circle","city":"Kansas City","state":"MO","lat":"39.035","lng":"37.6409"},
{"name":"Dermazor","category":"Graphical User Interface","address":"879 Nancy Park","city":"Springfield","state":"IL","lat":"39.778","lng":"39.849"},
{"name":"Zovirax","category":"demand-driven","address":"891 Oriole Hill","city":"Alpharetta","state":"GA","lat":"34.0268","lng":"40.3286"},
{"name":"Mary Kay Suncare Sunscreen Broad Spectrum SPF 50","category":"Seamless","address":"72060 Merrick Street","city":"Delray Beach","state":"FL","lat":"26.6459","lng":"39.7851"},
{"name":"Elgin Pain Relief","category":"Diverse","address":"31 Bowman Lane","city":"Houston","state":"TX","lat":"29.6518","lng":"41.3914"},
{"name":"Captopril","category":"Customizable","address":"34290 Crownhardt Alley","city":"Huntington","state":"WV","lat":"38.4134","lng":"27.2866"},
{"name":"SHISEIDO REFINING MAKEUP PRIMER","category":"zero tolerance","address":"6 Maple Wood Circle","city":"Grand Rapids","state":"MI","lat":"43.0314","lng":"41.0516"},
{"name":"Potassium Chloride","category":"secondary","address":"481 Mockingbird Center","city":"Saint Louis","state":"MO","lat":"38.6531","lng":"40.6412"},
{"name":"Exuviance CoverBlend Concealing Treatment Makeup","category":"Extended","address":"276 Leroy Trail","city":"El Paso","state":"TX","lat":"31.6948","lng":"47.6564"},
{"name":"Buspirone Hydrochloride","category":"upward-trending","address":"7764 Gale Lane","city":"Houston","state":"TX","lat":"29.6518","lng":"30.6521"},
{"name":"Fluoxetine Hydrochloride","category":"functionalities","address":"23 Sutherland Alley","city":"Philadelphia","state":"PA","lat":"40.0018","lng":"32.0053"},
{"name":"Overly Sensitive","category":"Organic","address":"7 Clarendon Circle","city":"Roanoke","state":"VA","lat":"37.2742","lng":"34.0324"},
{"name":"AK-FLUOR","category":"Optional","address":"19511 Di Loreto Avenue","city":"Charlotte","state":"NC","lat":"35.26","lng":"38.8933"},
{"name":"Doxepin Hydrochloride","category":"analyzer","address":"05678 Huxley Street","city":"El Paso","state":"TX","lat":"31.6631","lng":"41.4019"},
{"name":"Ciprofloxacin","category":"product","address":"93 Elgar Alley","city":"Silver Spring","state":"MD","lat":"39.144","lng":"33.9228"},
{"name":"Dextroamphetamine Saccharate, Amphetamine Aspartate, Dextroamphetamine Sulfate and Amphetamine Sulfate","category":"initiative","address":"923 Fuller Street","city":"Wilkes Barre","state":"PA","lat":"41.2722","lng":"40.5048"},
{"name":"Good Sense","category":"Adaptive","address":"867 Burning Wood Park","city":"Augusta","state":"GA","lat":"33.386","lng":"34.0585"},
{"name":"TUBERSOL","category":"holistic","address":"2299 Lunder Crossing","city":"Warren","state":"OH","lat":"41.2405","lng":"44.9427"},
{"name":"Losartan Potassium and Hydrochlorothiazide","category":"content-based","address":"06 Anzinger Pass","city":"Irvine","state":"CA","lat":"33.6607","lng":"29.4237"},
{"name":"Phylorinol","category":"Realigned","address":"02 Paget Drive","city":"Topeka","state":"KS","lat":"39.0429","lng":"33.9464"},
{"name":"Menop-aid","category":"content-based","address":"733 Fair Oaks Plaza","city":"Washington","state":"DC","lat":"38.9","lng":"40.9008"},
{"name":"Tramadol Hydrochloride and Acetaminophen","category":"high-level","address":"95 Stoughton Center","city":"Arlington","state":"VA","lat":"38.8836","lng":"29.6297"},
{"name":"Cefuroxime","category":"clear-thinking","address":"18873 Jackson Court","city":"Pueblo","state":"CO","lat":"38.2352","lng":"31.1282"},
{"name":"SUN CARE","category":"strategy","address":"6247 Loeprich Parkway","city":"Washington","state":"DC","lat":"38.8933","lng":"37.6808"},
{"name":"Buckwheat Grain","category":"paradigm","address":"46 Commercial Court","city":"Charleston","state":"WV","lat":"38.2968","lng":"41.5968"},
{"name":"TIME-GESIC","category":"Pre-emptive","address":"693 Oneill Center","city":"Detroit","state":"MI","lat":"42.2719","lng":"35.4015"},
{"name":"Risperidone","category":"time-frame","address":"384 Karstens Drive","city":"Portland","state":"OR","lat":"45.484","lng":"38.8933"},
{"name":"Thymupar","category":"Implemented","address":"773 Lyons Court","city":"San Jose","state":"CA","lat":"37.2187","lng":"37.3163"},
{"name":"pain and fever","category":"cohesive","address":"8 Tennessee Alley","city":"Austin","state":"TX","lat":"30.352","lng":"27.8444"},
{"name":"ORGAN-I NR","category":"De-engineered","address":"7 Caliangt Terrace","city":"Milwaukee","state":"WI","lat":"43.0389","lng":"31.6948"},
{"name":"clindamycin phosphate","category":"Cloned","address":"4852 Talmadge Drive","city":"South Lake Tahoe","state":"CA","lat":"38.8753","lng":"25.6364"},
{"name":"Lice Killing","category":"asynchronous","address":"74401 Buhler Road","city":"El Paso","state":"TX","lat":"31.6948","lng":"40.2805"},
{"name":"ONGLYZA","category":"Graphical User Interface","address":"1 Anniversary Point","city":"Omaha","state":"NE","lat":"41.2338","lng":"46.5901"},
{"name":"venlafaxine hydrochloride","category":"artificial intelligence","address":"92 Sutherland Junction","city":"Cumming","state":"GA","lat":"34.2216","lng":"38.8933"},
{"name":"Aluminum Hydroxide","category":"content-based","address":"1 Clove Way","city":"Jeffersonville","state":"IN","lat":"38.2868","lng":"39.2663"},
{"name":"Morphine Sulfate","category":"24/7","address":"80 Lighthouse Bay Park","city":"Atlanta","state":"GA","lat":"33.8444","lng":"41.5968"},
{"name":"Ibuprofen","category":"Multi-lateral","address":"20935 Forest Dale Way","city":"Des Moines","state":"IA","lat":"41.6727","lng":"41.9229"},
{"name":"TENUE DE PERFECTION TIMEPROOF FOUNDATION WITH SUNSCREEN ULTIMATE LASTING PERFECTION BROAD SPECTRUM SPF 20 04 BEIGE MOYEN","category":"Decentralized","address":"1 Menomonie Circle","city":"Roanoke","state":"VA","lat":"37.2742","lng":"32.9189"},
{"name":"Lactated Ringers","category":"secured line","address":"1871 Schurz Place","city":"Paterson","state":"NJ","lat":"41.0114","lng":"34.84"},
{"name":"Topiramate","category":"needs-based","address":"4 Anderson Place","city":"Cleveland","state":"OH","lat":"41.4571","lng":"33.3072"},
{"name":"Phenytoin Sodium","category":"Seamless","address":"6 Hallows Court","city":"Killeen","state":"TX","lat":"31.1282","lng":"36.3265"},
{"name":"Morphine Sulfate","category":"clear-thinking","address":"411 Cascade Drive","city":"Bronx","state":"NY","lat":"40.8085","lng":"32.7673"},
{"name":"Permethrin","category":"Innovative","address":"1877 Namekagon Park","city":"Minneapolis","state":"MN","lat":"45.0159","lng":"27.4272"},
{"name":"Lymphatic Drainer","category":"function","address":"925 Morning Circle","city":"Baltimore","state":"MD","lat":"39.2847","lng":"41.0655"},
{"name":"Topcare childrens allergy","category":"zero tolerance","address":"1 Del Mar Road","city":"New York City","state":"NY","lat":"40.7808","lng":"46.8147"},
{"name":"POPULUS ALBA POLLEN","category":"asymmetric","address":"49674 Paget Circle","city":"Tacoma","state":"WA","lat":"47.1441","lng":"43.286"},
{"name":"SUGAR BEET POLLEN","category":"middleware","address":"362 Badeau Terrace","city":"Washington","state":"DC","lat":"38.9","lng":"38.5495"},
{"name":"Veil Fluid Makeup Sand","category":"info-mediaries","address":"239 Tony Avenue","city":"North Port","state":"FL","lat":"27.0459","lng":"35.2017"},
{"name":"Chlorpromazine Hydrochloride","category":"Cloned","address":"86 Toban Avenue","city":"Albuquerque","state":"NM","lat":"35.0443","lng":"39.7388"},
{"name":"Erythromycin","category":"tertiary","address":"1 Mendota Point","city":"Waltham","state":"MA","lat":"42.3654","lng":"38.6531"},
{"name":"Fatigue Fighter","category":"multi-tasking","address":"57 Debs Avenue","city":"Des Moines","state":"IA","lat":"41.6727","lng":"32.6796"},
{"name":"Exelon","category":"didactic","address":"031 Rockefeller Parkway","city":"Memphis","state":"TN","lat":"35.2017","lng":"43.1154"},
{"name":"Pantoprazole Sodium","category":"even-keeled","address":"94520 Derek Hill","city":"Miami","state":"FL","lat":"25.7341","lng":"36.1499"},
{"name":"Kroger Aloe Vera","category":"Fundamental","address":"2333 Melody Park","city":"Houston","state":"TX","lat":"29.8159","lng":"42.6149"},
{"name":"Clearskin","category":"help-desk","address":"974 Dovetail Road","city":"Washington","state":"DC","lat":"38.8971","lng":"41.9229"},
{"name":"Protonix","category":"Reactive","address":"61 Melrose Road","city":"Dallas","state":"TX","lat":"32.7086","lng":"33.9754"},
{"name":"MISSHA SIGNATURE EXTREME COVER CONCEALER","category":"utilisation","address":"36888 Sloan Trail","city":"Hialeah","state":"FL","lat":"25.8594","lng":"41.1257"},
{"name":"kids throat","category":"Organized","address":"05237 Northport Hill","city":"Lexington","state":"KY","lat":"38.0612","lng":"40.6914"},
{"name":"Diabetic Tussin Expectorant","category":"monitoring","address":"44135 Hanson Plaza","city":"Nashville","state":"TN","lat":"36.1379","lng":"36.1378"},
{"name":"Donald Duck Sun Smacker SPF 24 Tropical Touchdown","category":"local area network","address":"6394 Menomonie Crossing","city":"Philadelphia","state":"PA","lat":"40.0018","lng":"47.3081"},
{"name":"Goodsense Oral Pain Relief","category":"Reduced","address":"43990 Hazelcrest Alley","city":"Austin","state":"TX","lat":"30.3752","lng":"33.3363"},
{"name":"Thyroid Assist","category":"Extended","address":"94131 Dixon Drive","city":"Wilkes Barre","state":"PA","lat":"41.2722","lng":"39.0583"},
{"name":"QUERCUS VIRGINIANA POLLEN","category":"Multi-tiered","address":"755 Dryden Road","city":"San Rafael","state":"CA","lat":"38.068","lng":"28.0173"},
{"name":"Aconitum Bryonia","category":"eco-centric","address":"98537 Charing Cross Plaza","city":"Topeka","state":"KS","lat":"39.0583","lng":"27.8444"},
{"name":"CENTER-AL - CARYA ILLINOINENSIS POLLEN","category":"service-desk","address":"7540 Buena Vista Drive","city":"Lafayette","state":"LA","lat":"30.2023","lng":"38.8999"},
{"name":"ESIKA","category":"solution-oriented","address":"8 Ohio Circle","city":"Trenton","state":"NJ","lat":"40.2805","lng":"31.6948"},
{"name":"Cartia","category":"structure","address":"056 Lawn Parkway","city":"Sterling","state":"VA","lat":"39.0853","lng":"30.3449"},
{"name":"MIRTAZAPINE","category":"Public-key","address":"0 Tony Drive","city":"New York City","state":"NY","lat":"40.7086","lng":"33.0169"},
{"name":"Labetalol Hydrochloride","category":"website","address":"54400 Hermina Avenue","city":"Minneapolis","state":"MN","lat":"44.9762","lng":"32.3386"},
{"name":"night time","category":"background","address":"99 Myrtle Way","city":"Daytona Beach","state":"FL","lat":"29.0227","lng":"45.04"},
{"name":"Guaifenesin and Codeine Phosphate","category":"real-time","address":"3494 Anthes Crossing","city":"Jacksonville","state":"FL","lat":"30.3189","lng":"37.4376"},
{"name":"Jelly Bean Antibacterial Hand","category":"Seamless","address":"7 Oriole Street","city":"Laurel","state":"MD","lat":"38.8336","lng":"33.9443"},
{"name":"Amitriptyline Hydrochloride","category":"pricing structure","address":"032 Hansons Court","city":"Fredericksburg","state":"VA","lat":"38.3365","lng":"39.1271"},
{"name":"ANTIBACTERIAL HAND SANITIZER","category":"neural-net","address":"5 Paget Lane","city":"Atlanta","state":"GA","lat":"33.8444","lng":"45.0803"},
{"name":"Potassium Chloride","category":"client-server","address":"426 Mallory Crossing","city":"Huntsville","state":"TX","lat":"30.7813","lng":"31.6948"},
{"name":"Carvedilol","category":"grid-enabled","address":"04 Stone Corner Hill","city":"Wichita","state":"KS","lat":"37.6333","lng":"34.4329"},
{"name":"Bauri 40 (Number 22)","category":"modular","address":"97 Elgar Center","city":"Fairbanks","state":"AK","lat":"64.8561","lng":"40.3522"},
{"name":"Povidone-Iodine","category":"Intuitive","address":"6711 Butterfield Point","city":"Colorado Springs","state":"CO","lat":"38.8881","lng":"41.9705"},
{"name":"hybrid CF","category":"architecture","address":"78404 Glacier Hill Road","city":"Alexandria","state":"VA","lat":"38.8158","lng":"38.0638"},
{"name":"Doxycycline Hyclate","category":"Up-sized","address":"3593 Fieldstone Street","city":"Schaumburg","state":"IL","lat":"42.0144","lng":"39.8422"},
{"name":"dual action","category":"Business-focused","address":"7125 Farwell Park","city":"San Antonio","state":"TX","lat":"29.4375","lng":"28.5289"},
{"name":"Air","category":"fault-tolerant","address":"980 Forest Run Trail","city":"Amarillo","state":"TX","lat":"35.4015","lng":"29.5189"},
{"name":"Losartan Potassium and Hydrochlorothiazide","category":"encryption","address":"75 Leroy Drive","city":"Delray Beach","state":"FL","lat":"26.6459","lng":"34.0268"},
{"name":"Inflammation - Fever","category":"cohesive","address":"5 Oriole Crossing","city":"Milwaukee","state":"WI","lat":"43.0746","lng":"36.7949"},
{"name":"Motion Sickness Relief","category":"regional","address":"97 Hoffman Road","city":"New York City","state":"NY","lat":"40.8111","lng":"40.6747"},
{"name":"Paricalcitol","category":"Versatile","address":"78 Kensington Lane","city":"Nashville","state":"TN","lat":"36.1866","lng":"41.6857"},
{"name":"Cavan Alpha","category":"portal","address":"21 Vernon Terrace","city":"Sacramento","state":"CA","lat":"38.3774","lng":"39.439"},
{"name":"Blistex","category":"Centralized","address":"64271 Lakewood Gardens Junction","city":"Augusta","state":"GA","lat":"33.386","lng":"38.189"},
{"name":"Orphenadrine Citrate","category":"Total","address":"32714 Thackeray Drive","city":"Richmond","state":"VA","lat":"37.5498","lng":"34.1378"},
{"name":"Pediatex","category":"bifurcated","address":"82 Killdeer Center","city":"Houston","state":"TX","lat":"29.834","lng":"37.9971"},
{"name":"Rifampin","category":"Total","address":"09 Bunker Hill Hill","city":"Columbus","state":"OH","lat":"40.0495","lng":"44.9427"},
{"name":"S4 Sunscreen Stick","category":"analyzer","address":"00026 Maple Wood Circle","city":"Minneapolis","state":"MN","lat":"45.0159","lng":"38.189"},
{"name":"Medi-first Burn First Aid","category":"archive","address":"8693 Dakota Park","city":"New York City","state":"NY","lat":"40.6964","lng":"40.0018"},
{"name":"Xyntha","category":"capacity","address":"49636 Del Sol Way","city":"Fort Pierce","state":"FL","lat":"27.3896","lng":"40.7526"},
{"name":"Nitrogen","category":"database","address":"90796 Longview Center","city":"Pittsburgh","state":"PA","lat":"40.4344","lng":"39.439"},
{"name":"ketamine hydrochloride","category":"knowledge user","address":"1358 Fairfield Place","city":"New Haven","state":"CT","lat":"41.3657","lng":"43.0982"},
{"name":"Dry Idea AD Antiperspirant Roll-On Powder Fresh","category":"solution","address":"60430 Dapin Pass","city":"Phoenix","state":"AZ","lat":"33.5082","lng":"39.0763"},
{"name":"Select OB","category":"bi-directional","address":"770 Merchant Lane","city":"Oceanside","state":"CA","lat":"33.1968","lng":"40.7145"},
{"name":"Fosinopril Sodium and Hydrochlorothiazide","category":"Reduced","address":"62 Clemons Center","city":"Oklahoma City","state":"OK","lat":"35.5704","lng":"29.2541"},
{"name":"Lycogel Cover and Recovery - Breathable Concealer - SPF 30 with LYCO Complex","category":"Virtual","address":"5120 Lindbergh Hill","city":"Carson City","state":"NV","lat":"39.2025","lng":"38.9033"},
{"name":"Moxifloxacin Hydrochloride","category":"next generation","address":"5 Bonner Plaza","city":"Birmingham","state":"AL","lat":"33.5446","lng":"36.9312"},
{"name":"OXYGEN","category":"info-mediaries","address":"65 Merry Circle","city":"Rochester","state":"NY","lat":"43.1216","lng":"42.2399"},
{"name":"Mirtazapine","category":"structure","address":"9 Superior Point","city":"Huntington","state":"WV","lat":"38.4096","lng":"38.8933"},
{"name":"Cold and Hot Medicated","category":"artificial intelligence","address":"79 Crest Line Pass","city":"Albany","state":"NY","lat":"42.6149","lng":"39.0668"},
{"name":"Zidovudine","category":"bifurcated","address":"05 Stephen Hill","city":"Fort Pierce","state":"FL","lat":"27.4049","lng":"33.8444"},
{"name":"ROTARIX","category":"maximized","address":"95668 Katie Plaza","city":"Warren","state":"OH","lat":"41.2405","lng":"26.6459"},
{"name":"Unithroid","category":"customer loyalty","address":"377 Namekagon Way","city":"Chico","state":"CA","lat":"39.8032","lng":"29.834"},
{"name":"Minocycline Hydrochloride","category":"support","address":"11363 Badeau Pass","city":"Bronx","state":"NY","lat":"40.8247","lng":"41.6857"},
{"name":"Be gone Scars","category":"system engine","address":"39 Nancy Hill","city":"Greensboro","state":"NC","lat":"36.0807","lng":"33.9352"},
{"name":"WATERLESS HAND SANITIZER","category":"pricing structure","address":"454 Hooker Plaza","city":"Oklahoma City","state":"OK","lat":"35.5704","lng":"29.834"},
{"name":"No7 Radiant Glow Foundation Sunscreen SPF 15 Cream","category":"Advanced","address":"5075 Sheridan Drive","city":"Buffalo","state":"NY","lat":"42.8614","lng":"39.7673"},
{"name":"Candesartan Cilexetil","category":"intranet","address":"1087 Victoria Park","city":"Bethlehem","state":"PA","lat":"40.6278","lng":"42.2399"},
{"name":"Aspirin","category":"toolset","address":"58335 Menomonie Plaza","city":"Buffalo","state":"NY","lat":"42.8441","lng":"38.4134"},
{"name":"Metoprolol succinate","category":"software","address":"7560 Ludington Court","city":"Albany","state":"GA","lat":"31.55","lng":"39.734"},
{"name":"Ibuprofen","category":"multimedia","address":"66 Mosinee Terrace","city":"Montgomery","state":"AL","lat":"32.2334","lng":"47.6536"},
{"name":"Pepto-Bismol","category":"Distributed","address":"1963 Little Fleur Center","city":"Loretto","state":"MN","lat":"45.0159","lng":"39.1668"},
{"name":"Hydrochlorothiazide","category":"Automated","address":"29357 Morrow Point","city":"Gaithersburg","state":"MD","lat":"39.0883","lng":"38.0401"},
{"name":"Oregon Ash","category":"Reduced","address":"42293 Sloan Trail","city":"Raleigh","state":"NC","lat":"35.7667","lng":"34.1446"},
{"name":"KAISER PERMANENTE","category":"Pre-emptive","address":"6150 Shelley Drive","city":"Charlotte","state":"NC","lat":"35.1316","lng":"40.7808"},
{"name":"PREZISTA","category":"composite","address":"2990 Loomis Crossing","city":"New York City","state":"NY","lat":"40.7086","lng":"40.0018"},
{"name":"BPO 3 Foaming","category":"Switchable","address":"985 Dahle Drive","city":"Indianapolis","state":"IN","lat":"39.7851","lng":"40.7664"},
{"name":"Dermasil","category":"intangible","address":"9331 Declaration Point","city":"Brooklyn","state":"NY","lat":"40.6412","lng":"33.6493"},
{"name":"Quinapril","category":"Polarised","address":"84990 Autumn Leaf Point","city":"Tallahassee","state":"FL","lat":"30.4478","lng":"37.3352"},
{"name":"Potassium Chloride","category":"modular","address":"55713 Westend Place","city":"Bradenton","state":"FL","lat":"27.4544","lng":"33.9328"},
{"name":"Tizanidine","category":"Multi-lateral","address":"4 Little Fleur Pass","city":"Seattle","state":"WA","lat":"47.4441","lng":"31.6948"},
{"name":"Dandruff","category":"Adaptive","address":"4 Maywood Drive","city":"Topeka","state":"KS","lat":"39.0142","lng":"31.6948"},
{"name":"Acyclovir","category":"encompassing","address":"924 Brentwood Road","city":"Rochester","state":"NY","lat":"43.286","lng":"33.5446"},
{"name":"fad first aid direct allergy relief","category":"zero tolerance","address":"563 Bunker Hill Trail","city":"San Jose","state":"CA","lat":"37.3729","lng":"43.0685"},
{"name":"Laxative","category":"orchestration","address":"4 Bashford Terrace","city":"Dayton","state":"OH","lat":"39.7505","lng":"33.8994"},
{"name":"CY BETTER LIPS BALM Humectante para Labios con color FPS 18","category":"5th generation","address":"3994 Mitchell Place","city":"Chicago","state":"IL","lat":"41.8097","lng":"47.7377"},
{"name":"Ear Complex","category":"actuating","address":"43466 Shelley Park","city":"White Plains","state":"NY","lat":"41.0247","lng":"38.3365"},
{"name":"Ipratropium Bromide","category":"holistic","address":"8 Hagan Circle","city":"Houston","state":"TX","lat":"29.9335","lng":"33.571"},
{"name":"Acarbose","category":"knowledge base","address":"70 Sloan Circle","city":"Jersey City","state":"NJ","lat":"40.702","lng":"38.9585"},
{"name":"Tropicamide","category":"fresh-thinking","address":"606 Schlimgen Road","city":"Rochester","state":"NY","lat":"43.174","lng":"33.9631"},
{"name":"Symmetry Hand Sanitizer","category":"Organized","address":"21284 Lindbergh Center","city":"Roanoke","state":"VA","lat":"37.2742","lng":"33.7169"},
{"name":"Hydrocodone Bitartrate And Acetaminophen","category":"asynchronous","address":"89 Carpenter Street","city":"Mc Keesport","state":"PA","lat":"40.4344","lng":"39.2933"},
{"name":"Acyclovir","category":"object-oriented","address":"7412 Comanche Center","city":"Lake Worth","state":"FL","lat":"26.6104","lng":"33.8444"},
{"name":"NUCYNTA","category":"solution","address":"9 Lighthouse Bay Place","city":"Evansville","state":"IN","lat":"37.929","lng":"43.0214"},
{"name":"Lopressor HCT","category":"mission-critical","address":"75142 Menomonie Street","city":"Oklahoma City","state":"OK","lat":"35.5514","lng":"39.8726"},
{"name":"FLUOXETINE","category":"national","address":"32 Morning Parkway","city":"Lynn","state":"MA","lat":"42.4694","lng":"37.2742"},
{"name":"ONDANSETRON","category":"Object-based","address":"01 Paget Park","city":"Long Beach","state":"CA","lat":"33.7843","lng":"34.1073"},
{"name":"FRAICHEUR CEDRE BLEU ANTIPERSPIRANT AND DEODORANT ROLL-ON","category":"full-range","address":"66 Golf Alley","city":"Cincinnati","state":"OH","lat":"39.1092","lng":"38.2968"},
{"name":"Granisetron Hydrochloride","category":"mobile","address":"6 Green Circle","city":"Tampa","state":"FL","lat":"27.872","lng":"33.1428"},
{"name":"Denavir","category":"Programmable","address":"80 Bultman Parkway","city":"Louisville","state":"KY","lat":"38.1913","lng":"39.4336"},
{"name":"Sevoflurane","category":"Customer-focused","address":"99 Loeprich Avenue","city":"Evanston","state":"IL","lat":"42.0586","lng":"26.0989"},
{"name":"Cromolyn Sodium","category":"dedicated","address":"66123 Monterey Alley","city":"Decatur","state":"IL","lat":"39.854","lng":"35.2017"},
{"name":"Kettle Neti Pot","category":"Open-architected","address":"41 Waxwing Plaza","city":"San Bernardino","state":"CA","lat":"34.1069","lng":"33.2765"},
{"name":"Ibuprofen","category":"Proactive","address":"43 Forest Crossing","city":"Garden Grove","state":"CA","lat":"33.783","lng":"35.26"},
{"name":"Red Maple","category":"Horizontal","address":"61 Hazelcrest Parkway","city":"Fairbanks","state":"AK","lat":"64.8544","lng":"39.085"},
{"name":"Spring Birch Pollen","category":"Grass-roots","address":"55881 Londonderry Alley","city":"Seattle","state":"WA","lat":"47.6151","lng":"38.7072"},
{"name":"Oxygen","category":"Quality-focused","address":"56244 Hazelcrest Court","city":"Richmond","state":"VA","lat":"37.5242","lng":"41.1894"},
{"name":"Stool Softener","category":"fresh-thinking","address":"854 Barnett Circle","city":"Sioux Falls","state":"SD","lat":"43.6746","lng":"39.2829"},
{"name":"REVITALIZING FACIAL FOAM","category":"static","address":"1 Di Loreto Park","city":"Norfolk","state":"VA","lat":"36.8787","lng":"44.968"},
{"name":"BLATELLA GERMANICA","category":"open system","address":"2 Express Pass","city":"Washington","state":"DC","lat":"38.9164","lng":"39.116"},
{"name":"Reprexain","category":"value-added","address":"1639 Sundown Parkway","city":"Lexington","state":"KY","lat":"38.0283","lng":"34.01"},
{"name":"Candida Combo","category":"cohesive","address":"118 Sunbrook Circle","city":"Scottsdale","state":"AZ","lat":"33.2765","lng":"41.2553"},
{"name":"Ear Relief","category":"secured line","address":"248 Colorado Drive","city":"Sioux Falls","state":"SD","lat":"43.6746","lng":"37.9651"},
{"name":"Diltiazem Hydrochloride","category":"definition","address":"32 Rutledge Court","city":"El Paso","state":"TX","lat":"31.8925","lng":"31.6948"},
{"name":"Good Sense Nasal","category":"responsive","address":"3128 Sage Place","city":"Fresno","state":"CA","lat":"36.7464","lng":"39.009"},
{"name":"Tretinoin","category":"budgetary management","address":"9621 Golf Drive","city":"Savannah","state":"GA","lat":"32.0175","lng":"30.0071"},
{"name":"Atropinum Compositum Rx","category":"holistic","address":"7602 Mccormick Place","city":"Lees Summit","state":"MO","lat":"38.8518","lng":"34.01"},
{"name":"Moist SURE","category":"Customer-focused","address":"74717 Carberry Way","city":"San Antonio","state":"TX","lat":"29.4413","lng":"47.1126"},
{"name":"ULMUS AMERICANA POLLEN","category":"collaboration","address":"286 Monument Parkway","city":"Amarillo","state":"TX","lat":"35.1885","lng":"38.8933"},
{"name":"CEFOTAXIME","category":"modular","address":"021 Pawling Plaza","city":"Shreveport","state":"LA","lat":"32.6076","lng":"47.6564"},
{"name":"Verapamil","category":"hardware","address":"9885 Onsgard Street","city":"Chicago","state":"IL","lat":"41.7454","lng":"33.7473"},
{"name":"AQUAFRESH","category":"policy","address":"41247 Hudson Point","city":"Charleston","state":"WV","lat":"38.2968","lng":"25.7559"},
{"name":"Spiny Pigweed","category":"optimizing","address":"85866 Ridgeway Plaza","city":"Phoenix","state":"AZ","lat":"33.2765","lng":"33.7678"},
{"name":"SBS 40","category":"Centralized","address":"57 Pleasure Hill","city":"Saint Augustine","state":"FL","lat":"29.9475","lng":"33.0169"},
{"name":"Day Time Cold/Flu Relief","category":"firmware","address":"1 Oak Valley Court","city":"Madison","state":"WI","lat":"43.0696","lng":"38.8667"},
{"name":"Levothyroxine Sodium","category":"circuit","address":"98 Oneill Crossing","city":"Newark","state":"DE","lat":"39.5645","lng":"42.4156"},
{"name":"Amitriptyline Hydrochloride","category":"De-engineered","address":"25 Oak Court","city":"Jackson","state":"MS","lat":"32.2832","lng":"33.6021"},
{"name":"Clotrimazole and Betamethasone Dipropionate","category":"portal","address":"604 Monument Road","city":"El Paso","state":"TX","lat":"31.6948","lng":"40.2618"},
{"name":"INDOMETHACIN","category":"Vision-oriented","address":"5128 Petterle Place","city":"Santa Barbara","state":"CA","lat":"34.4329","lng":"40.0903"},
{"name":"Dyural LM Kit","category":"Seamless","address":"622 Sundown Drive","city":"Atlanta","state":"GA","lat":"33.786","lng":"42.5991"},
{"name":"All Day Pain Relief","category":"stable","address":"44106 Lukken Hill","city":"Birmingham","state":"AL","lat":"33.5446","lng":"47.0662"},
{"name":"Childrens Sudafed PE","category":"Face to face","address":"9 Fulton Alley","city":"Reading","state":"PA","lat":"40.338","lng":"33.5446"},
{"name":"Lisinopril","category":"didactic","address":"57616 Lindbergh Center","city":"Daytona Beach","state":"FL","lat":"29.0227","lng":"42.2399"},
{"name":"Juxtapid","category":"Customizable","address":"13749 Stuart Court","city":"Jamaica","state":"NY","lat":"40.6914","lng":"35.5514"},
{"name":"Etodolac","category":"discrete","address":"271 Duke Circle","city":"Columbus","state":"GA","lat":"32.5161","lng":"47.6536"},
{"name":"ANTIBACTERIAL FOAMING","category":"Multi-tiered","address":"78981 Northview Terrace","city":"San Francisco","state":"CA","lat":"37.7441","lng":"39.8285"},
{"name":"Aveeno Active Naturals Skin Relief Calming","category":"Multi-tiered","address":"48241 Westend Trail","city":"Memphis","state":"TN","lat":"35.0981","lng":"36.0384"},
{"name":"Our Family","category":"Secured","address":"2855 Shopko Trail","city":"Pensacola","state":"FL","lat":"30.4061","lng":"38.9327"},
{"name":"Carvedilol","category":"hub","address":"29508 Stone Corner Junction","city":"Baton Rouge","state":"LA","lat":"30.3633","lng":"41.0938"},
{"name":"METHOTREXATE","category":"throughput","address":"8 Milwaukee Pass","city":"Jacksonville","state":"FL","lat":"30.2231","lng":"29.9015"},
{"name":"Finasteride","category":"standardization","address":"7423 Hermina Road","city":"Fresno","state":"CA","lat":"36.7464","lng":"35.4015"},
{"name":"levomefolate calcium and schizochytrium dha","category":"Reactive","address":"69 Hintze Crossing","city":"Idaho Falls","state":"ID","lat":"43.3233","lng":"43.6746"},
{"name":"Elta MD UV Aero","category":"motivating","address":"5265 Hoard Trail","city":"Saint Paul","state":"MN","lat":"44.9608","lng":"42.2719"},
{"name":"Carbamazepine","category":"attitude","address":"5 Merchant Court","city":"Houston","state":"TX","lat":"29.6889","lng":"33.5446"},
{"name":"Butalbital, Acetaminophen and Caffeine","category":"tertiary","address":"85 Troy Circle","city":"Denton","state":"TX","lat":"33.1903","lng":"32.4968"},
{"name":"Cyclobenzaprine Hydrochloride","category":"attitude","address":"08 Westend Plaza","city":"Hartford","state":"CT","lat":"41.786","lng":"36.1499"},
{"name":"zaleplon","category":"Visionary","address":"36 Hudson Way","city":"Eugene","state":"OR","lat":"44.0185","lng":"41.8119"},
{"name":"Idarubicin Hydrochloride","category":"concept","address":"925 Pennsylvania Parkway","city":"Denver","state":"CO","lat":"39.7388","lng":"39.9379"},
{"name":"flu and sore throat","category":"local","address":"0455 Russell Junction","city":"Albany","state":"NY","lat":"42.6149","lng":"33.5446"},
{"name":"Pravastatin Sodium","category":"Grass-roots","address":"0 Schlimgen Parkway","city":"San Antonio","state":"TX","lat":"29.4375","lng":"31.6948"},
{"name":"Gabapentin","category":"functionalities","address":"6438 Buhler Alley","city":"New York City","state":"NY","lat":"40.7105","lng":"29.4375"},
{"name":"Respaire-30","category":"fresh-thinking","address":"256 Upham Road","city":"Colorado Springs","state":"CO","lat":"38.7378","lng":"29.6889"},
{"name":"allergy and congestion relief d","category":"Reduced","address":"98 Vahlen Circle","city":"Brockton","state":"MA","lat":"41.9705","lng":"31.6948"},
{"name":"Miochol E","category":"Balanced","address":"10288 Moose Way","city":"San Luis Obispo","state":"CA","lat":"35.3471","lng":"35.056"},
{"name":"Tretinoin","category":"Open-source","address":"8 Sommers Court","city":"Winston Salem","state":"NC","lat":"36.0275","lng":"43.0696"},
{"name":"DR. RECKEWEG R47 Neuroglobin","category":"Profound","address":"01871 Manitowish Junction","city":"Springfield","state":"OH","lat":"39.9106","lng":"37.7848"},
{"name":"Levofloxacin","category":"Proactive","address":"06 Larry Hill","city":"Mobile","state":"AL","lat":"30.6589","lng":"30.2642"},
{"name":"Creon","category":"Function-based","address":"4770 Crowley Circle","city":"New York City","state":"NY","lat":"40.7918","lng":"30.0071"},
{"name":"Trihexyphenidyl Hydrochloride","category":"secured line","address":"0 Morningstar Terrace","city":"Des Moines","state":"IA","lat":"41.6727","lng":"31.6948"},
{"name":"ZOLINZA","category":"artificial intelligence","address":"30 Derek Park","city":"Peoria","state":"IL","lat":"40.7681","lng":"38.8933"},
{"name":"Atorvastatin Calcium","category":"exuding","address":"6316 Sage Crossing","city":"Brooklyn","state":"NY","lat":"40.6628","lng":"40.6514"},
{"name":"Warfarin Sodium","category":"Pre-emptive","address":"843 Talisman Way","city":"Pueblo","state":"CO","lat":"38.1286","lng":"40.7536"},
{"name":"CENTER-AL - ACACIA LONGIFOLIA POLLEN","category":"Implemented","address":"90 Village Junction","city":"Clearwater","state":"FL","lat":"27.9843","lng":"43.1558"},
{"name":"Ibuprofen","category":"systematic","address":"088 Goodland Point","city":"Tucson","state":"AZ","lat":"32.0848","lng":"38.189"},
{"name":"BETULA LENTA POLLEN","category":"upward-trending","address":"8955 Memorial Avenue","city":"Salt Lake City","state":"UT","lat":"40.6681","lng":"43.0696"},
{"name":"Meclizine Hydrochloride","category":"Balanced","address":"29249 Transport Circle","city":"Louisville","state":"KY","lat":"38.189","lng":"29.5189"},
{"name":"Candida albicans","category":"Quality-focused","address":"65 Leroy Plaza","city":"Muncie","state":"IN","lat":"40.2023","lng":"34.8661"},
{"name":"Redtop Grass, Standardized","category":"Synergistic","address":"5189 Buell Street","city":"Fresno","state":"CA","lat":"36.7464","lng":"40.7808"},
{"name":"MagneBind 400 Rx","category":"Adaptive","address":"726 Fordem Circle","city":"Birmingham","state":"AL","lat":"33.6493","lng":"45.5806"},
{"name":"Aplicare Povidone-iodine Scrub","category":"concept","address":"6655 Buhler Plaza","city":"Salinas","state":"CA","lat":"36.7563","lng":"36.1539"},
{"name":"heartburn relief","category":"fault-tolerant","address":"1 Morningstar Park","city":"Charlotte","state":"NC","lat":"35.26","lng":"36.0512"},
{"name":"Eastern Cottonwood","category":"solution","address":"39 Thierer Pass","city":"Naples","state":"FL","lat":"26.134","lng":"29.834"},
{"name":"Spearmint","category":"Versatile","address":"82 Sauthoff Place","city":"Louisville","state":"KY","lat":"38.189","lng":"33.0005"},
{"name":"quetiapine fumarate","category":"web-enabled","address":"51609 Sullivan Court","city":"Philadelphia","state":"PA","lat":"40.0018","lng":"41.9166"},
{"name":"Denorex Extra Strength","category":"Expanded","address":"846 Rockefeller Crossing","city":"Corpus Christi","state":"TX","lat":"27.777","lng":"35.244"},
{"name":"Tarceva","category":"knowledge user","address":"17 Cherokee Crossing","city":"New Brunswick","state":"NJ","lat":"40.43","lng":"41.7458"},
{"name":"CanTravel","category":"holistic","address":"55924 Havey Lane","city":"Arlington","state":"VA","lat":"38.8545","lng":"33.9228"},
{"name":"Goat Epithelium","category":"structure","address":"96 Pennsylvania Terrace","city":"Portland","state":"OR","lat":"45.5806","lng":"37.7848"},
{"name":"Weight Loss","category":"Virtual","address":"504 Cordelia Pass","city":"Baltimore","state":"MD","lat":"39.2933","lng":"40.0018"},
{"name":"First Degree Burn","category":"infrastructure","address":"62 Summer Ridge Way","city":"Spokane","state":"WA","lat":"47.6964","lng":"38.8933"},
{"name":"Diovan HCT","category":"productivity","address":"2845 School Alley","city":"Saint Louis","state":"MO","lat":"38.6531","lng":"39.7388"},
{"name":"Rugby GAS RELIEF","category":"Re-engineered","address":"58 Waywood Hill","city":"Austin","state":"TX","lat":"30.4501","lng":"40.8247"},
{"name":"Depo-Testosterone","category":"Team-oriented","address":"789 Fairfield Park","city":"Tacoma","state":"WA","lat":"47.2484","lng":"40.2618"},
{"name":"MELALEUCA QUINQUENERVIA POLLEN","category":"Re-contextualized","address":"982 Lake View Point","city":"Chicago","state":"IL","lat":"41.8119","lng":"38.0283"},
{"name":"LGB","category":"Open-source","address":"4 Nancy Pass","city":"Mobile","state":"AL","lat":"30.671","lng":"31.6948"},
{"name":"Diltiazem Hydrochloride","category":"upward-trending","address":"410 Del Mar Drive","city":"Santa Ana","state":"CA","lat":"33.7465","lng":"34.2216"},
{"name":"Sunmark ibuprofen","category":"heuristic","address":"0097 Talmadge Point","city":"Charleston","state":"WV","lat":"38.3358","lng":"40.7808"},
{"name":"Mugwort","category":"time-frame","address":"0548 Warner Drive","city":"Santa Barbara","state":"CA","lat":"34.4329","lng":"29.7853"},
{"name":"Duloxetine","category":"Multi-tiered","address":"3 Russell Trail","city":"Hampton","state":"VA","lat":"37.0206","lng":"33.7866"},
{"name":"Sugar Free Refreshing Mint Fishermans Friend Menthol Cough Suppressant","category":"hardware","address":"0 Tomscot Lane","city":"Mobile","state":"AL","lat":"30.6589","lng":"45.2009"},
{"name":"Oxygen","category":"User-centric","address":"87436 Village Road","city":"Buffalo","state":"NY","lat":"42.8441","lng":"35.411"},
{"name":"PediaCare Childrens Plus Flu","category":"client-server","address":"92 Coleman Lane","city":"Pasadena","state":"CA","lat":"33.7866","lng":"36.8282"},
{"name":"Indoor/Outdoor ALLERGY RELIEF Softgels","category":"bandwidth-monitored","address":"74 Shopko Alley","city":"Long Beach","state":"CA","lat":"33.7843","lng":"42.36"},
{"name":"LOreal Paris Dermo Expertise","category":"success","address":"0 Independence Place","city":"Indianapolis","state":"IN","lat":"39.7673","lng":"43.0174"},
{"name":"Walgreens Medicated Callus Removers","category":"Customer-focused","address":"972 Sundown Pass","city":"Shreveport","state":"LA","lat":"32.6076","lng":"43.0214"},
{"name":"Metformin Hydrochloride","category":"parallelism","address":"9527 Toban Court","city":"Portland","state":"OR","lat":"45.5806","lng":"40.7145"},
{"name":"Badger SPF 35 All Season Face","category":"Fully-configurable","address":"2268 Anniversary Circle","city":"Glendale","state":"CA","lat":"33.7866","lng":"34.7269"},
{"name":"Cleviprex","category":"bottom-line","address":"114 Kensington Court","city":"Tucson","state":"AZ","lat":"32.2691","lng":"40.4598"},
{"name":"Ketorolac Tromethamine","category":"Public-key","address":"215 Old Shore Center","city":"Lubbock","state":"TX","lat":"33.571","lng":"31.5915"},
{"name":"Sardine","category":"Distributed","address":"0 Corry Trail","city":"Bonita Springs","state":"FL","lat":"26.3771","lng":"38.8336"},
{"name":"Oxygen","category":"Enterprise-wide","address":"193 Service Drive","city":"Raleigh","state":"NC","lat":"35.7908","lng":"30.4793"},
{"name":"PE multi-stymptom cold and cough relief","category":"heuristic","address":"2 Mallard Place","city":"Watertown","state":"MA","lat":"42.37","lng":"47.6036"},
{"name":"Bodycology white gardenia anti-bacterial scrubbing hand soap","category":"Stand-alone","address":"8099 Porter Hill","city":"Columbus","state":"MS","lat":"33.5508","lng":"39.1075"},
{"name":"Primaquine Phosphate","category":"Grass-roots","address":"31840 Paget Crossing","city":"San Diego","state":"CA","lat":"33.0169","lng":"43.6746"},
{"name":"dg health pain reliever","category":"human-resource","address":"80 Hovde Court","city":"Kansas City","state":"KS","lat":"39.0966","lng":"27.3637"},
{"name":"Pravastatin sodium","category":"framework","address":"65803 Buell Place","city":"Portland","state":"OR","lat":"45.5137","lng":"42.3231"},
{"name":"Liothyronine Sodium","category":"Public-key","address":"13316 Mitchell Parkway","city":"Lexington","state":"KY","lat":"38.0283","lng":"36.086"},
{"name":"COLOCYNTHIS","category":"artificial intelligence","address":"969 Hudson Point","city":"Lexington","state":"KY","lat":"38.0283","lng":"36.0512"},
{"name":"Degree","category":"infrastructure","address":"794 3rd Trail","city":"Chandler","state":"AZ","lat":"33.2765","lng":"42.7684"},
{"name":"Phendimetrazine Tartrate","category":"Reduced","address":"38587 Sullivan Terrace","city":"Fresno","state":"CA","lat":"36.7991","lng":"34.0881"},
{"name":"loperamide hydrochloride","category":"background","address":"1 Mcbride Alley","city":"Seattle","state":"WA","lat":"47.4511","lng":"21.3062"},
{"name":"ISOPROPYL RUBBING ALCOHOL","category":"Multi-tiered","address":"0 Twin Pines Drive","city":"Greeley","state":"CO","lat":"40.5009","lng":"47.6339"},
{"name":"Divalproex Sodium","category":"fault-tolerant","address":"11 Charing Cross Circle","city":"Evansville","state":"IN","lat":"37.9971","lng":"36.1398"},
{"name":"Hydralazine Hydrochloride","category":"Centralized","address":"2 Clove Avenue","city":"Trenton","state":"NJ","lat":"40.2805","lng":"41.1002"},
{"name":"NEURO PAIN HP","category":"hardware","address":"0759 Prentice Avenue","city":"Dayton","state":"OH","lat":"39.7395","lng":"38.5495"},
{"name":"Mucus Relief DM","category":"hub","address":"1245 Ryan Center","city":"Dallas","state":"TX","lat":"32.7673","lng":"30.43"},
{"name":"ELF Tinted Moisturizer SPF 15","category":"firmware","address":"97 Dapin Center","city":"Lake Worth","state":"FL","lat":"26.5747","lng":"26.4116"},
{"name":"Slash Pine","category":"didactic","address":"128 North Crossing","city":"Sparks","state":"NV","lat":"39.6269","lng":"25.5584"},
{"name":"MDSolarSciences","category":"superstructure","address":"8 Dorton Hill","city":"Durham","state":"NC","lat":"36.0218","lng":"33.7678"},
{"name":"UV LOCK FLOWER DAILY POWERFUL SUN","category":"synergy","address":"676 Eliot Plaza","city":"San Francisco","state":"CA","lat":"37.7864","lng":"47.0662"},
{"name":"Clonidine","category":"reciprocal","address":"99 6th Plaza","city":"Portsmouth","state":"NH","lat":"43.0059","lng":"42.4617"},
{"name":"Sertraline Hydrochloride","category":"focus group","address":"8042 Weeping Birch Court","city":"Fort Lauderdale","state":"FL","lat":"26.1654","lng":"29.6813"},
{"name":"Carbidopa and Levodopa","category":"instruction set","address":"23743 Rigney Trail","city":"Albuquerque","state":"NM","lat":"35.0443","lng":"45.0159"},
{"name":"Olay Total Effects Pore Minimizing CC","category":"monitoring","address":"09347 Old Shore Center","city":"Lubbock","state":"TX","lat":"33.6021","lng":"31.6948"},
{"name":"PRAMIPEXOLE DIHYDROCHLORIDE","category":"optimizing","address":"3 Mendota Parkway","city":"Zephyrhills","state":"FL","lat":"28.2059","lng":"40.6681"},
{"name":"Megestrol Acetate","category":"Upgradable","address":"7736 Crest Line Park","city":"Miami Beach","state":"FL","lat":"25.8486","lng":"39.1682"},
{"name":"Listerine SmartRinse Anticavity Fluoride Rinse","category":"help-desk","address":"89 Cordelia Crossing","city":"Henderson","state":"NV","lat":"36.0384","lng":"33.3616"},
{"name":"Alendronate Sodium","category":"scalable","address":"3 Washington Drive","city":"Jacksonville","state":"FL","lat":"30.3449","lng":"38.3774"},
{"name":"CeraVe","category":"bottom-line","address":"0218 Buena Vista Pass","city":"Kalamazoo","state":"MI","lat":"42.2922","lng":"41.7691"},
{"name":"DDF Ultra-Lite Oil-Free Moisturizing Dew","category":"non-volatile","address":"0 Saint Paul Drive","city":"Cincinnati","state":"OH","lat":"39.1092","lng":"43.0059"},
{"name":"Itch Relief","category":"holistic","address":"2878 Knutson Crossing","city":"Washington","state":"DC","lat":"38.9327","lng":"32.7699"},
{"name":"Levothyroxine sodium","category":"concept","address":"8518 Mccormick Avenue","city":"Boston","state":"MA","lat":"42.3611","lng":"31.1721"},
{"name":"Kadian","category":"Integrated","address":"8 Huxley Place","city":"North Little Rock","state":"AR","lat":"34.8272","lng":"38.8933"},
{"name":"ABILIFY","category":"well-modulated","address":"5576 Lakeland Avenue","city":"Birmingham","state":"AL","lat":"33.4951","lng":"29.6785"},
{"name":"Flecainide Acetate","category":"knowledge user","address":"564 Mendota Way","city":"Phoenix","state":"AZ","lat":"33.6299","lng":"45.0159"},
{"name":"Icy Hot Medicated Roll Large","category":"explicit","address":"36384 Huxley Junction","city":"Saint Paul","state":"MN","lat":"45.0059","lng":"47.7377"},
{"name":"cyclobenzaprine hydrochloride","category":"superstructure","address":"01186 Magdeline Street","city":"Peoria","state":"IL","lat":"40.7442","lng":"44.9054"},
{"name":"HydrALAZINE Hydrochloride","category":"array","address":"631 Declaration Junction","city":"Erie","state":"PA","lat":"42.1827","lng":"38.7202"},
{"name":"Clobetasol Propionate","category":"Sharable","address":"0 Debra Drive","city":"Santa Ana","state":"CA","lat":"33.754","lng":"39.8422"},
{"name":"Quality Choice","category":"synergy","address":"20331 Anthes Lane","city":"El Paso","state":"TX","lat":"31.6948","lng":"40.692"},
{"name":"KENALOG-40","category":"Digitized","address":"6203 High Crossing Alley","city":"Roanoke","state":"VA","lat":"37.2742","lng":"33.9677"},
{"name":"Hemorrhoid Symptom Formula","category":"Re-engineered","address":"29 Glacier Hill Parkway","city":"Pasadena","state":"CA","lat":"33.7866","lng":"27.872"},
{"name":"Ibuprofen","category":"static","address":"66 Porter Circle","city":"Jacksonville","state":"FL","lat":"30.2407","lng":"38.3774"},
{"name":"Justice Grape Scent ANTI BAC HAND SANITIZER","category":"capability","address":"8111 Amoth Road","city":"Oklahoma City","state":"OK","lat":"35.421","lng":"29.9015"},
{"name":"Quality Choice Maximum Strength Urinary Pain Relief","category":"contextually-based","address":"5 Elka Park","city":"Wichita","state":"KS","lat":"37.7639","lng":"33.9937"},
{"name":"Anti Diarrheal","category":"capacity","address":"792 Oak Valley Place","city":"Albany","state":"NY","lat":"42.6853","lng":"39.439"},
{"name":"Prednisone","category":"hierarchy","address":"511 Forster Alley","city":"Huntsville","state":"TX","lat":"30.7813","lng":"34.0324"},
{"name":"Fentanyl","category":"functionalities","address":"1334 Lotheville Park","city":"Roanoke","state":"VA","lat":"37.2742","lng":"29.834"},
{"name":"Bacteria","category":"neural-net","address":"4481 Twin Pines Street","city":"Florence","state":"SC","lat":"34.1231","lng":"39.854"},
{"name":"SODIUM SULFACETAMIDE and SULFUR","category":"archive","address":"000 Sutteridge Hill","city":"Baltimore","state":"MD","lat":"39.2933","lng":"26.9668"},
{"name":"Pedipirox-4 Nail Kit","category":"success","address":"7 Dottie Place","city":"Scranton","state":"PA","lat":"41.3914","lng":"31.6948"},
{"name":"Dapsone","category":"Diverse","address":"1 Center Plaza","city":"Humble","state":"TX","lat":"30.0042","lng":"36.0119"},
{"name":"Nymalize","category":"Enhanced","address":"29 Rockefeller Hill","city":"Santa Barbara","state":"CA","lat":"34.4453","lng":"32.3475"},
{"name":"LUICHEL SHINY CAKE NO 23","category":"Mandatory","address":"9 Kipling Crossing","city":"Milwaukee","state":"WI","lat":"43.0528","lng":"42.7325"},
{"name":"Trazodone Hydrochloride","category":"mission-critical","address":"17 Iowa Point","city":"Atlanta","state":"GA","lat":"33.8444","lng":"29.834"},
{"name":"Neutrogena Ageless Intensives Anti Wrinkle Deep Wrinkle Daily Moisturizer","category":"instruction set","address":"18496 Farwell Center","city":"Syracuse","state":"NY","lat":"43.0354","lng":"26.1219"},
{"name":"Crestor","category":"didactic","address":"11 Pine View Point","city":"Fort Wayne","state":"IN","lat":"41.0977","lng":"34.6019"},
{"name":"Quack Grass","category":"challenge","address":"718 Westridge Drive","city":"Athens","state":"GA","lat":"33.9443","lng":"42.4011"},
{"name":"Redness reliever","category":"protocol","address":"0 Jackson Plaza","city":"Honolulu","state":"HI","lat":"21.351","lng":"43.0872"},
{"name":"4 Hour Allergy Relief","category":"Adaptive","address":"8 West Center","city":"Atlanta","state":"GA","lat":"33.9982","lng":"35.3039"},
{"name":"Duck Meat","category":"responsive","address":"530 Browning Alley","city":"Fort Lauderdale","state":"FL","lat":"26.0989","lng":"32.69"},
{"name":"OxyContin","category":"intranet","address":"02 Russell Crossing","city":"Raleigh","state":"NC","lat":"35.7977","lng":"40.7442"},
{"name":"Stavudine","category":"radical","address":"2 John Wall Point","city":"Long Beach","state":"CA","lat":"33.8635","lng":"38.8881"},
{"name":"Morphine Sulfate","category":"Focused","address":"84365 Packers Crossing","city":"Santa Rosa","state":"CA","lat":"38.4386","lng":"40.0903"},
{"name":"Lorac Foundation Medium Tan","category":"capability","address":"485 Onsgard Terrace","city":"Pensacola","state":"FL","lat":"30.6143","lng":"39.0429"},
{"name":"Dandruff","category":"concept","address":"52145 Main Avenue","city":"Phoenix","state":"AZ","lat":"33.2765","lng":"40.6763"},
{"name":"E.E.S","category":"process improvement","address":"511 Dexter Place","city":"Miami","state":"FL","lat":"25.5584","lng":"29.834"},
{"name":"ALL PURPOSE CLEANER","category":"Cross-group","address":"304 Garrison Pass","city":"Winston Salem","state":"NC","lat":"36.0275","lng":"40.6514"},
{"name":"Alprazolam","category":"value-added","address":"0 Charing Cross Street","city":"Birmingham","state":"AL","lat":"33.5446","lng":"44.5463"},
{"name":"ACETAMINOPHEN","category":"Phased","address":"0195 Heath Center","city":"New Haven","state":"CT","lat":"41.3087","lng":"32.7086"},
{"name":"Cyclobenzaprine Hydrochloride","category":"Progressive","address":"9760 Homewood Street","city":"Mobile","state":"AL","lat":"30.6589","lng":"40.7506"},
{"name":"Benzonatate","category":"attitude","address":"84 Hoard Drive","city":"Clearwater","state":"FL","lat":"27.8918","lng":"37.3983"},
{"name":"Acne Medication 10","category":"encryption","address":"30 Loomis Point","city":"Buffalo","state":"NY","lat":"42.7684","lng":"43.0113"},
{"name":"phendimetrazine tartrate","category":"Profit-focused","address":"9569 Pennsylvania Alley","city":"Columbus","state":"GA","lat":"32.5161","lng":"40.0018"},
{"name":"Hevert Cold and Flu Relief","category":"foreground","address":"72 Warner Park","city":"Nashville","state":"TN","lat":"36.1866","lng":"26.6459"},
{"name":"Smooth texture Orange flavor","category":"Intuitive","address":"4820 Red Cloud Crossing","city":"Gaithersburg","state":"MD","lat":"39.0883","lng":"29.8159"},
{"name":"Calcarea Carbonica Kit Refill","category":"Sharable","address":"98384 Eastwood Plaza","city":"Fort Wayne","state":"IN","lat":"41.0456","lng":"25.5584"},
{"name":"Retin-A","category":"leverage","address":"98 Northfield Pass","city":"Metairie","state":"LA","lat":"30.0005","lng":"40.0495"},
{"name":"Tobramycin and Dexamethasone","category":"asymmetric","address":"21 Mifflin Court","city":"Trenton","state":"NJ","lat":"40.251","lng":"39.969"},
{"name":"Shell Time Frame Future Resist Foundation Broad Spectrum SPF 20","category":"attitude-oriented","address":"966 Cody Street","city":"Jacksonville","state":"FL","lat":"30.3189","lng":"33.386"},
{"name":"Purell Personal Pack Sanitizing","category":"actuating","address":"4 Summerview Street","city":"Washington","state":"DC","lat":"38.8933","lng":"33.2765"},
{"name":"Chlordiazepoxide Hydrochloride","category":"knowledge base","address":"1745 Iowa Circle","city":"Tacoma","state":"WA","lat":"47.1441","lng":"35.1114"},
{"name":"L-Methylfolate Calcium","category":"methodical","address":"687 Heath Circle","city":"Erie","state":"PA","lat":"42.1827","lng":"33.7358"},
{"name":"LBEL NATURAL FINISH MOISTURIZING FOUNDATION SPF 25","category":"Triple-buffered","address":"88 School Lane","city":"Frankfort","state":"KY","lat":"38.2341","lng":"33.5291"},
{"name":"Body Luxuries Fresh Cotton Hand Sanitizer","category":"dynamic","address":"35440 Oneill Park","city":"New Orleans","state":"LA","lat":"30.0071","lng":"47.6536"},
{"name":"STRONTIUM CHLORIDE Sr-89","category":"zero defect","address":"8 Jay Hill","city":"Jersey City","state":"NJ","lat":"40.702","lng":"40.04"},
{"name":"Micardis HCT","category":"local","address":"46 Erie Terrace","city":"Ogden","state":"UT","lat":"41.2553","lng":"38.8606"},
{"name":"Chlordiazepoxide Hydrochloride","category":"artificial intelligence","address":"208 Mayfield Street","city":"Santa Monica","state":"CA","lat":"34.01","lng":"35.0664"},
{"name":"Simvastatin","category":"static","address":"81044 Ludington Park","city":"Honolulu","state":"HI","lat":"21.3278","lng":"34.0378"},
{"name":"Mary Kay Tinted Lip Balm Sunscreen SPF 15 Rose","category":"productivity","address":"8 Warner Avenue","city":"San Diego","state":"CA","lat":"32.8538","lng":"47.4511"},
{"name":"Ocean Breeze","category":"upward-trending","address":"47 Lawn Crossing","city":"Boston","state":"MA","lat":"42.3389","lng":"45.0059"},
{"name":"Ramipril","category":"Synergistic","address":"0 Milwaukee Alley","city":"Greenville","state":"SC","lat":"34.8497","lng":"39.7795"},
{"name":"PAXIL","category":"4th generation","address":"4239 Kinsman Place","city":"Tulsa","state":"OK","lat":"36.1398","lng":"40.7955"},
{"name":"Omeclamox-Pak","category":"local area network","address":"44165 Union Place","city":"Fresno","state":"CA","lat":"36.7377","lng":"39.441"},
{"name":"PROCRIT","category":"Advanced","address":"51759 Jenna Street","city":"Rochester","state":"NY","lat":"43.286","lng":"33.61"},
{"name":"BUCKWHEAT","category":"Exclusive","address":"57828 Sundown Street","city":"Kalamazoo","state":"MI","lat":"42.2922","lng":"29.6813"},
{"name":"rx act nasal decongestant pe","category":"6th generation","address":"8 Vermont Point","city":"Saint Louis","state":"MO","lat":"38.7196","lng":"31.6948"},
{"name":"SEROQUEL","category":"Networked","address":"727 Fuller Circle","city":"Green Bay","state":"WI","lat":"44.4601","lng":"28.5059"},
{"name":"Simvastatin","category":"complexity","address":"57404 Vera Crossing","city":"Saint Paul","state":"MN","lat":"44.9427","lng":"37.3729"},
{"name":"Preferred Plus Sinus","category":"Optional","address":"5983 Karstens Trail","city":"Chicago","state":"IL","lat":"41.993","lng":"32.8538"},
{"name":"Anastrozole","category":"matrix","address":"544 Aberg Trail","city":"Springfield","state":"IL","lat":"39.778","lng":"38.896"},
{"name":"KETOROLAC TROMETHAMINE","category":"directional","address":"89 Melvin Park","city":"Boca Raton","state":"FL","lat":"26.6459","lng":"40.4344"},
{"name":"Revlimid","category":"Right-sized","address":"826 Warner Avenue","city":"Austin","state":"TX","lat":"30.2721","lng":"35.2017"},
{"name":"SULFACETAMIDE SODIUM","category":"multimedia","address":"14 Harper Plaza","city":"Oakland","state":"CA","lat":"37.8044","lng":"45.9497"},
{"name":"Bacti-Free tm","category":"Customizable","address":"9 Quincy Plaza","city":"New Bedford","state":"MA","lat":"41.6913","lng":"38.8836"},
{"name":"BLACK HEAD REMOVER","category":"Inverse","address":"1368 Gina Crossing","city":"Irvine","state":"CA","lat":"33.6607","lng":"37.8571"},
{"name":"Sirolimus","category":"Sharable","address":"8012 Maryland Road","city":"Dallas","state":"TX","lat":"32.7673","lng":"33.8106"},
{"name":"all day pain relief","category":"Multi-layered","address":"911 Milwaukee Avenue","city":"Boston","state":"MA","lat":"42.3389","lng":"40.6451"},
{"name":"Tizanidine","category":"Versatile","address":"4 Anderson Drive","city":"Youngstown","state":"OH","lat":"41.0704","lng":"38.189"},
{"name":"Bethanechol Chloride","category":"installation","address":"3 Kropf Hill","city":"Saint Petersburg","state":"FL","lat":"27.6705","lng":"29.6518"},
{"name":"Icy Hot","category":"internet solution","address":"8523 Menomonie Place","city":"Tempe","state":"AZ","lat":"33.3363","lng":"39.0429"},
{"name":"24-Hour All Day Allergy","category":"approach","address":"11799 Sachs Place","city":"New York City","state":"NY","lat":"40.7808","lng":"38.2306"},
{"name":"Polyethylene Glycol 3350","category":"context-sensitive","address":"2 Merry Drive","city":"Las Vegas","state":"NV","lat":"35.9279","lng":"38.8933"},
{"name":"Prednisone","category":"Adaptive","address":"8 Beilfuss Way","city":"Houston","state":"TX","lat":"29.7543","lng":"42.0144"},
{"name":"Gabapentin","category":"migration","address":"73 Brown Place","city":"Decatur","state":"GA","lat":"33.7749","lng":"40.6964"},
{"name":"Nucynta","category":"impactful","address":"1 Towne Parkway","city":"Fort Lauderdale","state":"FL","lat":"26.1497","lng":"35.1885"},
{"name":"Omeprazole","category":"encompassing","address":"4 Pearson Crossing","city":"Northridge","state":"CA","lat":"33.7866","lng":"44.2595"},
{"name":"Obao","category":"Synergized","address":"3149 Morning Way","city":"Sterling","state":"VA","lat":"39.0853","lng":"30.4478"},
{"name":"TRAMADOL HYDROCHLORIDE","category":"access","address":"3 Redwing Parkway","city":"Dallas","state":"TX","lat":"32.69","lng":"37.9971"},
{"name":"Ofloxacin","category":"non-volatile","address":"198 Dennis Drive","city":"Cleveland","state":"OH","lat":"41.4335","lng":"39.0663"},
{"name":"Health And Beyond Instant Hand Sanitizer","category":"Implemented","address":"83965 Harper Alley","city":"Bakersfield","state":"CA","lat":"35.4369","lng":"30.3449"},
{"name":"Ativan","category":"concept","address":"86 Onsgard Alley","city":"Salinas","state":"CA","lat":"36.7563","lng":"40.2785"},
{"name":"Alprazolam","category":"Networked","address":"2 Marquette Terrace","city":"Las Vegas","state":"NV","lat":"35.9279","lng":"42.3389"},
{"name":"Double Duty Face Protector SPF 15","category":"extranet","address":"54 Debs Terrace","city":"Wichita","state":"KS","lat":"37.6808","lng":"41.1075"},
{"name":"Diocto","category":"architecture","address":"27585 Westend Park","city":"Huntington","state":"WV","lat":"38.4134","lng":"34.8019"},
{"name":"Gentamicin Sulfate","category":"application","address":"81860 Spaight Hill","city":"Paterson","state":"NJ","lat":"40.9166","lng":"31.1721"},
{"name":"Pramoxine-HC","category":"upward-trending","address":"26280 Golf Course Court","city":"Indianapolis","state":"IN","lat":"39.7851","lng":"30.7813"},
{"name":"Isopropyl alcohol","category":"bi-directional","address":"47078 Prairieview Hill","city":"Norcross","state":"GA","lat":"33.9677","lng":"40.8702"},
{"name":"Sucralfate","category":"strategy","address":"21 Dorton Crossing","city":"Detroit","state":"MI","lat":"42.3809","lng":"38.9513"},
{"name":"Anti-Bacterial Hand","category":"national","address":"43993 Sommers Alley","city":"Reno","state":"NV","lat":"40.5412","lng":"38.8933"},
{"name":"Magnesium Sulfate in Dextrose","category":"system engine","address":"9071 Lerdahl Plaza","city":"Washington","state":"DC","lat":"38.8933","lng":"28.3067"},
{"name":"Treatment Set TS349577","category":"homogeneous","address":"03764 Springs Alley","city":"Birmingham","state":"AL","lat":"33.5446","lng":"42.362"},
{"name":"Fluoxetine","category":"customer loyalty","address":"02556 Hazelcrest Drive","city":"Pensacola","state":"FL","lat":"30.4756","lng":"33.8444"},
{"name":"Burn","category":"help-desk","address":"96 Crest Line Way","city":"Jackson","state":"MS","lat":"32.3218","lng":"30.2081"}]